{"type":"FeatureCollection","crs":{"type":"name","properties":{"name":"EPSG:4326"}},"features":[{"type":"Feature","id":1,"geometry":{"type":"Point","coordinates":[-81.612170999503,41.4699259997353]},"properties":{"OBJECTID":1,"Id":0,"stop_id":"gtfs:00024","stop_code":" ","stop_name":"10406 KINSMAN RD","stop_desc":" ","zone_id":"gtfs:","stop_url":" ","loc_type":" ","parent_sta":" ","NumTrips":24,"TripsPerHr":4,"MxWtTime":16,"rte_count":1,"AvgHeadway":15,"MinHeadway":15,"MaxHeadway":15,"MetHdWyLim":1,"route_list":"14","GlobalID":"d0f60d70-4fb3-42c1-974d-caf70a1b1c01"}},{"type":"Feature","id":2,"geometry":{"type":"Point","coordinates":[-81.7588010000644,41.4810259999056]},"properties":{"OBJECTID":2,"Id":0,"stop_id":"gtfs:00025","stop_code":" ","stop_name":"10335 DETROIT AV","stop_desc":" ","zone_id":"gtfs:","stop_url":" ","loc_type":" ","parent_sta":" ","NumTrips":24,"TripsPerHr":4,"MxWtTime":16,"rte_count":1,"AvgHeadway":15,"MinHeadway":15,"MaxHeadway":15,"MetHdWyLim":1,"route_list":"26","GlobalID":"8033a33c-3aa9-4b85-9cba-9e075c9a3363"}},{"type":"Feature","id":3,"geometry":{"type":"Point","coordinates":[-81.7589910002448,41.4811800000871]},"properties":{"OBJECTID":3,"Id":0,"stop_id":"gtfs:00026","stop_code":" ","stop_name":"10335 DETROIT AV","stop_desc":" ","zone_id":"gtfs:","stop_url":" ","loc_type":" ","parent_sta":" ","NumTrips":24,"TripsPerHr":4,"MxWtTime":15,"rte_count":1,"AvgHeadway":15,"MinHeadway":15,"MaxHeadway":15,"MetHdWyLim":1,"route_list":"26","GlobalID":"37d931a1-9aa4-4358-82b9-a31ce5393b5d"}},{"type":"Feature","id":4,"geometry":{"type":"Point","coordinates":[-81.6123129998064,41.4934599996399]},"properties":{"OBJECTID":4,"Id":0,"stop_id":"gtfs:00028","stop_code":" ","stop_name":"QUINCY AV & WOOODHILL RD","stop_desc":" ","zone_id":"gtfs:","stop_url":" ","loc_type":" ","parent_sta":" ","NumTrips":30,"TripsPerHr":5,"MxWtTime":60,"rte_count":2,"AvgHeadway":37.5,"MinHeadway":15,"MaxHeadway":60,"MetHdWyLim":1,"route_list":"10, 8","GlobalID":"76c9139b-8768-4207-ae65-d29f59841bf9"}},{"type":"Feature","id":5,"geometry":{"type":"Point","coordinates":[-81.760755999736,41.4815240008713]},"properties":{"OBJECTID":5,"Id":0,"stop_id":"gtfs:00031","stop_code":" ","stop_name":"10603 DETROIT AV","stop_desc":" ","zone_id":"gtfs:","stop_url":" ","loc_type":" ","parent_sta":" ","NumTrips":24,"TripsPerHr":4,"MxWtTime":16,"rte_count":1,"AvgHeadway":15,"MinHeadway":15,"MaxHeadway":15,"MetHdWyLim":1,"route_list":"26","GlobalID":"36766d1c-38ec-40af-a3cb-d97f99dcebf7"}},{"type":"Feature","id":6,"geometry":{"type":"Point","coordinates":[-81.7605900003746,41.4815929995954]},"properties":{"OBJECTID":6,"Id":0,"stop_id":"gtfs:00032","stop_code":" ","stop_name":"10603 DETROIT AV","stop_desc":" ","zone_id":"gtfs:","stop_url":" ","loc_type":" ","parent_sta":" ","NumTrips":24,"TripsPerHr":4,"MxWtTime":15,"rte_count":1,"AvgHeadway":15,"MinHeadway":15,"MaxHeadway":15,"MetHdWyLim":1,"route_list":"26","GlobalID":"3beec7fc-184b-4b66-83d4-c735764fd291"}},{"type":"Feature","id":7,"geometry":{"type":"Point","coordinates":[-81.6134890003117,41.5396380007846]},"properties":{"OBJECTID":7,"Id":0,"stop_id":"gtfs:00039","stop_code":" ","stop_name":"ST. CLAIR AV & E 106TH ST","stop_desc":" ","zone_id":"gtfs:","stop_url":" ","loc_type":" ","parent_sta":" ","NumTrips":48,"TripsPerHr":8,"MxWtTime":16,"rte_count":2,"AvgHeadway":15,"MinHeadway":15,"MaxHeadway":15,"MetHdWyLim":2,"route_list":"1, 10","GlobalID":"05d58578-8313-4a43-ad0e-30cbcb1ed209"}},{"type":"Feature","id":8,"geometry":{"type":"Point","coordinates":[-81.6086490000583,41.4691990003368]},"properties":{"OBJECTID":8,"Id":0,"stop_id":"gtfs:00041","stop_code":" ","stop_name":"10708 KINSMAN RD","stop_desc":" ","zone_id":"gtfs:","stop_url":" ","loc_type":" ","parent_sta":" ","NumTrips":24,"TripsPerHr":4,"MxWtTime":17,"rte_count":1,"AvgHeadway":15,"MinHeadway":15,"MaxHeadway":15,"MetHdWyLim":1,"route_list":"14","GlobalID":"f1d5b1e3-f754-40cd-80df-f1436538f173"}},{"type":"Feature","id":9,"geometry":{"type":"Point","coordinates":[-81.760530999875,41.4645299997299]},"properties":{"OBJECTID":9,"Id":0,"stop_id":"gtfs:00047","stop_code":" ","stop_name":"10705 LORAIN AV","stop_desc":" ","zone_id":"gtfs:","stop_url":" ","loc_type":" ","parent_sta":" ","NumTrips":24,"TripsPerHr":4,"MxWtTime":16,"rte_count":1,"AvgHeadway":15,"MinHeadway":15,"MaxHeadway":15,"MetHdWyLim":1,"route_list":"22","GlobalID":"bf97649b-e1f9-45ed-80b3-8c147c6f15a8"}},{"type":"Feature","id":10,"geometry":{"type":"Point","coordinates":[-81.6065800003082,41.540793999599]},"properties":{"OBJECTID":10,"Id":0,"stop_id":"gtfs:00070","stop_code":" ","stop_name":"ST. CLAIR AV & E 112TH ST","stop_desc":" ","zone_id":"gtfs:","stop_url":" ","loc_type":" ","parent_sta":" ","NumTrips":48,"TripsPerHr":8,"MxWtTime":16,"rte_count":2,"AvgHeadway":15,"MinHeadway":15,"MaxHeadway":15,"MetHdWyLim":2,"route_list":"1, 10","GlobalID":"c0da7cb5-e41c-4307-9e53-60b35116fa80"}},{"type":"Feature","id":11,"geometry":{"type":"Point","coordinates":[-81.5970569996628,41.5416270000617]},"properties":{"OBJECTID":11,"Id":0,"stop_id":"gtfs:00149","stop_code":" ","stop_name":"12509 ST. CLAIR AV","stop_desc":" ","zone_id":"gtfs:","stop_url":" ","loc_type":" ","parent_sta":" ","NumTrips":49,"TripsPerHr":8.16666666667,"MxWtTime":16,"rte_count":2,"AvgHeadway":15,"MinHeadway":15,"MaxHeadway":15,"MetHdWyLim":2,"route_list":"1, 10","GlobalID":"05715855-98fa-4077-9954-38dd695c60f8"}},{"type":"Feature","id":12,"geometry":{"type":"Point","coordinates":[-81.5934930003506,41.5435729998436]},"properties":{"OBJECTID":12,"Id":0,"stop_id":"gtfs:00189","stop_code":" ","stop_name":"ST. CLAIR AV & E 129TH ST","stop_desc":" ","zone_id":"gtfs:","stop_url":" ","loc_type":" ","parent_sta":"place_s129","NumTrips":23,"TripsPerHr":3.83333333333,"MxWtTime":16,"rte_count":1,"AvgHeadway":15,"MinHeadway":15,"MaxHeadway":15,"MetHdWyLim":1,"route_list":"10","GlobalID":"8fe1ed64-c4b6-44fb-ada6-73d0c49e4c62"}},{"type":"Feature","id":13,"geometry":{"type":"Point","coordinates":[-81.5926210004441,41.4554740000137]},"properties":{"OBJECTID":13,"Id":0,"stop_id":"gtfs:00201","stop_code":" ","stop_name":"CORLETT AV & CORLETT LOOP","stop_desc":" ","zone_id":"gtfs:","stop_url":" ","loc_type":" ","parent_sta":" ","NumTrips":24,"TripsPerHr":4,"MxWtTime":17,"rte_count":1,"AvgHeadway":15,"MinHeadway":15,"MaxHeadway":15,"MetHdWyLim":1,"route_list":"15","GlobalID":"3c61cced-7741-40af-9067-c532cc5420d1"}},{"type":"Feature","id":14,"geometry":{"type":"Point","coordinates":[-81.589006000353,41.4650770003771]},"properties":{"OBJECTID":14,"Id":0,"stop_id":"gtfs:00223","stop_code":" ","stop_name":"KINSMAN RD & E 135TH ST","stop_desc":" ","zone_id":"gtfs:","stop_url":" ","loc_type":" ","parent_sta":" ","NumTrips":24,"TripsPerHr":4,"MxWtTime":17,"rte_count":1,"AvgHeadway":15,"MinHeadway":15,"MaxHeadway":15,"MetHdWyLim":1,"route_list":"14","GlobalID":"5296b2da-159d-41c2-aa3e-9006468bdd0e"}},{"type":"Feature","id":15,"geometry":{"type":"Point","coordinates":[-81.5905320006049,41.5452280001328]},"properties":{"OBJECTID":15,"Id":0,"stop_id":"gtfs:00233","stop_code":" ","stop_name":"ST. CLAIR AV & WOODWORTH RD","stop_desc":" ","zone_id":"gtfs:","stop_url":" ","loc_type":" ","parent_sta":" ","NumTrips":47,"TripsPerHr":7.83333333333,"MxWtTime":16,"rte_count":2,"AvgHeadway":15,"MinHeadway":15,"MaxHeadway":15,"MetHdWyLim":2,"route_list":"1, 10","GlobalID":"b481fa88-72b7-4085-8999-1330da2bafc8"}},{"type":"Feature","id":16,"geometry":{"type":"Point","coordinates":[-81.5744489998578,41.5542089997149]},"properties":{"OBJECTID":16,"Id":0,"stop_id":"gtfs:00321","stop_code":" ","stop_name":"ST. CLAIR AV & E 153RD ST LOOP STOP 2","stop_desc":" ","zone_id":"gtfs:","stop_url":" ","loc_type":" ","parent_sta":" ","NumTrips":48,"TripsPerHr":8,"MxWtTime":16,"rte_count":2,"AvgHeadway":15,"MinHeadway":15,"MaxHeadway":15,"MetHdWyLim":2,"route_list":"1","GlobalID":"ddcededd-1e14-48b3-b5a3-dfd5e740407b"}},{"type":"Feature","id":17,"geometry":{"type":"Point","coordinates":[-81.7065769996298,41.4892470008546]},"properties":{"OBJECTID":17,"Id":0,"stop_id":"gtfs:00326","stop_code":" ","stop_name":"W 25TH ST & FRANKLIN AV","stop_desc":" ","zone_id":"gtfs:","stop_url":" ","loc_type":" ","parent_sta":" ","NumTrips":72,"TripsPerHr":12,"MxWtTime":30,"rte_count":4,"AvgHeadway":22.5,"MinHeadway":15,"MaxHeadway":30,"MetHdWyLim":2,"route_list":"22, 25, 45, 51","GlobalID":"bf274b31-e29c-4519-9ef9-bbbc2be7d856"}},{"type":"Feature","id":18,"geometry":{"type":"Point","coordinates":[-81.8061199996111,41.4520370008296]},"properties":{"OBJECTID":18,"Id":0,"stop_id":"gtfs:00332","stop_code":" ","stop_name":"LORAIN AV & TRISKETT RD","stop_desc":" ","zone_id":"gtfs:","stop_url":" ","loc_type":" ","parent_sta":" ","NumTrips":30,"TripsPerHr":5,"MxWtTime":60,"rte_count":2,"AvgHeadway":37.5,"MinHeadway":15,"MaxHeadway":60,"MetHdWyLim":1,"route_list":"22, 86","GlobalID":"6c3e3b4a-cc33-4770-b764-77536d4b0943"}},{"type":"Feature","id":19,"geometry":{"type":"Point","coordinates":[-81.6153509992777,41.5149119998264]},"properties":{"OBJECTID":19,"Id":0,"stop_id":"gtfs:00362","stop_code":" ","stop_name":"E 105TH ST & MAGNOLIA DR","stop_desc":" ","zone_id":"gtfs:","stop_url":" ","loc_type":" ","parent_sta":" ","NumTrips":23,"TripsPerHr":3.83333333333,"MxWtTime":16,"rte_count":1,"AvgHeadway":15,"MinHeadway":15,"MaxHeadway":15,"MetHdWyLim":1,"route_list":"10","GlobalID":"0f9ac859-33ec-45fd-a2ec-aae0a8d80161"}},{"type":"Feature","id":20,"geometry":{"type":"Point","coordinates":[-81.5667290001881,41.5800820006089]},"properties":{"OBJECTID":20,"Id":0,"stop_id":"gtfs:00370","stop_code":" ","stop_name":"16151 LAKESHORE BLVD","stop_desc":" ","zone_id":"gtfs:","stop_url":" ","loc_type":" ","parent_sta":" ","NumTrips":23,"TripsPerHr":3.83333333333,"MxWtTime":17,"rte_count":1,"AvgHeadway":15,"MinHeadway":15,"MaxHeadway":15,"MetHdWyLim":1,"route_list":"10","GlobalID":"131e405d-c3b1-447f-9648-318791cde57a"}},{"type":"Feature","id":21,"geometry":{"type":"Point","coordinates":[-81.56374900024,41.5806110001143]},"properties":{"OBJECTID":21,"Id":0,"stop_id":"gtfs:00383","stop_code":" ","stop_name":"16608 LAKESHORE BLVD","stop_desc":" ","zone_id":"gtfs:","stop_url":" ","loc_type":" ","parent_sta":" ","NumTrips":23,"TripsPerHr":3.83333333333,"MxWtTime":17,"rte_count":1,"AvgHeadway":15,"MinHeadway":15,"MaxHeadway":15,"MetHdWyLim":1,"route_list":"10","GlobalID":"48e8fc84-fc0c-4108-a166-90695a264763"}},{"type":"Feature","id":22,"geometry":{"type":"Point","coordinates":[-81.5625039996513,41.4644550000236]},"properties":{"OBJECTID":22,"Id":0,"stop_id":"gtfs:00387","stop_code":" ","stop_name":"16800 CHAGRIN BLVD","stop_desc":" ","zone_id":"gtfs:","stop_url":" ","loc_type":" ","parent_sta":" ","NumTrips":24,"TripsPerHr":4,"MxWtTime":17,"rte_count":1,"AvgHeadway":15,"MinHeadway":15,"MaxHeadway":15,"MetHdWyLim":1,"route_list":"14","GlobalID":"1a55d7bd-80b9-4810-ba86-ef6c9bc80fce"}},{"type":"Feature","id":23,"geometry":{"type":"Point","coordinates":[-81.5620440007682,41.46456299987]},"properties":{"OBJECTID":23,"Id":0,"stop_id":"gtfs:00392","stop_code":" ","stop_name":"16812 CHAGRIN BLVD","stop_desc":" ","zone_id":"gtfs:","stop_url":" ","loc_type":" ","parent_sta":" ","NumTrips":24,"TripsPerHr":4,"MxWtTime":16,"rte_count":1,"AvgHeadway":15,"MinHeadway":15,"MaxHeadway":15,"MetHdWyLim":1,"route_list":"14","GlobalID":"7874de78-6eeb-4daa-9e2e-856d5e0fb0b6"}},{"type":"Feature","id":24,"geometry":{"type":"Point","coordinates":[-81.5594599993794,41.4497689996944]},"properties":{"OBJECTID":24,"Id":0,"stop_id":"gtfs:00399","stop_code":" ","stop_name":"17203 HARVARD AV E","stop_desc":" ","zone_id":"gtfs:","stop_url":" ","loc_type":" ","parent_sta":" ","NumTrips":24,"TripsPerHr":4,"MxWtTime":19,"rte_count":1,"AvgHeadway":15,"MinHeadway":15,"MaxHeadway":15,"MetHdWyLim":1,"route_list":"15","GlobalID":"1f97708a-3c9e-4608-9af5-72fda264d7d0"}},{"type":"Feature","id":25,"geometry":{"type":"Point","coordinates":[-81.5576070000439,41.4499199999815]},"properties":{"OBJECTID":25,"Id":0,"stop_id":"gtfs:00406","stop_code":" ","stop_name":"17415 HARVARD AV E","stop_desc":" ","zone_id":"gtfs:","stop_url":" ","loc_type":" ","parent_sta":" ","NumTrips":24,"TripsPerHr":4,"MxWtTime":16,"rte_count":1,"AvgHeadway":15,"MinHeadway":15,"MaxHeadway":15,"MetHdWyLim":1,"route_list":"15","GlobalID":"81041ff8-e90a-48fd-9256-bb5efc1bdb22"}},{"type":"Feature","id":26,"geometry":{"type":"Point","coordinates":[-81.8186579999249,41.4501030000632]},"properties":{"OBJECTID":26,"Id":0,"stop_id":"gtfs:00408","stop_code":" ","stop_name":"17439 LORAIN AV","stop_desc":" ","zone_id":"gtfs:","stop_url":" ","loc_type":" ","parent_sta":" ","NumTrips":23,"TripsPerHr":3.83333333333,"MxWtTime":16,"rte_count":1,"AvgHeadway":15,"MinHeadway":15,"MaxHeadway":15,"MetHdWyLim":1,"route_list":"22","GlobalID":"846db48d-3c0b-485a-986e-01ee084fd4fb"}},{"type":"Feature","id":27,"geometry":{"type":"Point","coordinates":[-81.5578340007195,41.5827730001168]},"properties":{"OBJECTID":27,"Id":0,"stop_id":"gtfs:00412","stop_code":" ","stop_name":"17570 LAKESHORE BLVD","stop_desc":" ","zone_id":"gtfs:","stop_url":" ","loc_type":" ","parent_sta":" ","NumTrips":23,"TripsPerHr":3.83333333333,"MxWtTime":17,"rte_count":1,"AvgHeadway":15,"MinHeadway":15,"MaxHeadway":15,"MetHdWyLim":1,"route_list":"10","GlobalID":"50f904c6-d31f-4f6f-98d8-cf8a93e652da"}},{"type":"Feature","id":28,"geometry":{"type":"Point","coordinates":[-81.5578279999199,41.5829280005698]},"properties":{"OBJECTID":28,"Id":0,"stop_id":"gtfs:00413","stop_code":" ","stop_name":"LAKESHORE BLVD & WILDWOOD LN","stop_desc":" ","zone_id":"gtfs:","stop_url":" ","loc_type":" ","parent_sta":" ","NumTrips":24,"TripsPerHr":4,"MxWtTime":18,"rte_count":1,"AvgHeadway":15,"MinHeadway":15,"MaxHeadway":15,"MetHdWyLim":1,"route_list":"10","GlobalID":"67d03e20-4be5-4742-a5b8-482ab3dce30c"}},{"type":"Feature","id":29,"geometry":{"type":"Point","coordinates":[-81.5572060000602,41.5839819999964]},"properties":{"OBJECTID":29,"Id":0,"stop_id":"gtfs:00416","stop_code":" ","stop_name":"LAKESHORE BLVD & MARCELLA RD","stop_desc":" ","zone_id":"gtfs:","stop_url":" ","loc_type":" ","parent_sta":" ","NumTrips":24,"TripsPerHr":4,"MxWtTime":18,"rte_count":1,"AvgHeadway":15,"MinHeadway":15,"MaxHeadway":15,"MetHdWyLim":1,"route_list":"10","GlobalID":"1630b7e7-69ca-4ea4-8b46-4b5bc53c948d"}},{"type":"Feature","id":30,"geometry":{"type":"Point","coordinates":[-81.5535629997431,41.4498999996782]},"properties":{"OBJECTID":30,"Id":0,"stop_id":"gtfs:00425","stop_code":" ","stop_name":"HARVARD AV & LEE HEIGHTS BLVD","stop_desc":" ","zone_id":"gtfs:","stop_url":" ","loc_type":" ","parent_sta":" ","NumTrips":24,"TripsPerHr":4,"MxWtTime":16,"rte_count":1,"AvgHeadway":15,"MinHeadway":15,"MaxHeadway":15,"MetHdWyLim":1,"route_list":"15","GlobalID":"e1fd8474-6ccb-4fb8-9bbb-80b6228e0cda"}},{"type":"Feature","id":31,"geometry":{"type":"Point","coordinates":[-81.8229920005327,41.4507579996224]},"properties":{"OBJECTID":31,"Id":0,"stop_id":"gtfs:00433","stop_code":" ","stop_name":"18200 LORAIN AV","stop_desc":" ","zone_id":"gtfs:","stop_url":" ","loc_type":" ","parent_sta":" ","NumTrips":24,"TripsPerHr":4,"MxWtTime":16,"rte_count":1,"AvgHeadway":15,"MinHeadway":15,"MaxHeadway":15,"MetHdWyLim":1,"route_list":"22","GlobalID":"d46cd399-be08-4537-88cb-28f847447f2e"}},{"type":"Feature","id":32,"geometry":{"type":"Point","coordinates":[-81.5521089994913,41.5554769996355]},"properties":{"OBJECTID":32,"Id":0,"stop_id":"gtfs:00437","stop_code":" ","stop_name":"EUCLID AV & CLIFFVIEW RD","stop_desc":" ","zone_id":"gtfs:","stop_url":" ","loc_type":" ","parent_sta":" ","NumTrips":24,"TripsPerHr":4,"MxWtTime":16,"rte_count":1,"AvgHeadway":15,"MinHeadway":15,"MaxHeadway":15,"MetHdWyLim":1,"route_list":"28","GlobalID":"1182cbc4-5324-4805-9b58-10eee353abf6"}},{"type":"Feature","id":33,"geometry":{"type":"Point","coordinates":[-81.822970999665,41.450889999809]},"properties":{"OBJECTID":33,"Id":0,"stop_id":"gtfs:00444","stop_code":" ","stop_name":"18211 LORAIN AV","stop_desc":" ","zone_id":"gtfs:","stop_url":" ","loc_type":" ","parent_sta":" ","NumTrips":23,"TripsPerHr":3.83333333333,"MxWtTime":16,"rte_count":1,"AvgHeadway":15,"MinHeadway":15,"MaxHeadway":15,"MetHdWyLim":1,"route_list":"22","GlobalID":"ff0325f6-8136-48c8-b7dc-cfed8fb410a2"}},{"type":"Feature","id":34,"geometry":{"type":"Point","coordinates":[-81.5515339998987,41.4498000001516]},"properties":{"OBJECTID":34,"Id":0,"stop_id":"gtfs:00446","stop_code":" ","stop_name":"18213 HARVARD AV E","stop_desc":" ","zone_id":"gtfs:","stop_url":" ","loc_type":" ","parent_sta":" ","NumTrips":24,"TripsPerHr":4,"MxWtTime":19,"rte_count":1,"AvgHeadway":15,"MinHeadway":15,"MaxHeadway":15,"MetHdWyLim":1,"route_list":"15","GlobalID":"8267feed-825f-4d8f-b13e-cdd2c957e95c"}},{"type":"Feature","id":35,"geometry":{"type":"Point","coordinates":[-81.8257429996684,41.4828669998768]},"properties":{"OBJECTID":35,"Id":0,"stop_id":"gtfs:00448","stop_code":" ","stop_name":"DETROIT AV & MAILE AV","stop_desc":" ","zone_id":"gtfs:","stop_url":" ","loc_type":" ","parent_sta":" ","NumTrips":24,"TripsPerHr":4,"MxWtTime":16,"rte_count":1,"AvgHeadway":15,"MinHeadway":15,"MaxHeadway":15,"MetHdWyLim":1,"route_list":"26","GlobalID":"8ae70c99-4322-413f-88ac-457d39a808a1"}},{"type":"Feature","id":36,"geometry":{"type":"Point","coordinates":[-81.828172999558,41.4812319994979]},"properties":{"OBJECTID":36,"Id":0,"stop_id":"gtfs:00475","stop_code":" ","stop_name":"ROCKY RIVER LOOP","stop_desc":" ","zone_id":"gtfs:","stop_url":" ","loc_type":" ","parent_sta":" ","NumTrips":24,"TripsPerHr":4,"MxWtTime":16,"rte_count":1,"AvgHeadway":15,"MinHeadway":15,"MaxHeadway":15,"MetHdWyLim":1,"route_list":"26","GlobalID":"3d5063f9-e445-41fc-aeb2-6bdd6cb827a8"}},{"type":"Feature","id":37,"geometry":{"type":"Point","coordinates":[-81.54192399932,41.4498149997053]},"properties":{"OBJECTID":37,"Id":0,"stop_id":"gtfs:00497","stop_code":" ","stop_name":"19516 HARVARD AV","stop_desc":" ","zone_id":"gtfs:","stop_url":" ","loc_type":" ","parent_sta":" ","NumTrips":24,"TripsPerHr":4,"MxWtTime":18,"rte_count":1,"AvgHeadway":15,"MinHeadway":15,"MaxHeadway":15,"MetHdWyLim":1,"route_list":"15","GlobalID":"51cb33de-a206-4bfb-83d0-6d5cad2ea83c"}},{"type":"Feature","id":38,"geometry":{"type":"Point","coordinates":[-81.8391459999148,41.4656010001596]},"properties":{"OBJECTID":38,"Id":0,"stop_id":"gtfs:00499","stop_code":" ","stop_name":"CENTER RIDGE RD & WOOSTER PARK DR","stop_desc":" ","zone_id":"gtfs:","stop_url":" ","loc_type":" ","parent_sta":" ","NumTrips":36,"TripsPerHr":6,"MxWtTime":32,"rte_count":2,"AvgHeadway":22.5,"MinHeadway":15,"MaxHeadway":30,"MetHdWyLim":1,"route_list":"25, 26","GlobalID":"f720c0b4-2c92-41e9-8bc2-4092e0522a46"}},{"type":"Feature","id":39,"geometry":{"type":"Point","coordinates":[-81.5407810000201,41.4499280007063]},"properties":{"OBJECTID":39,"Id":0,"stop_id":"gtfs:00502","stop_code":" ","stop_name":"19707 HARVARD AV","stop_desc":" ","zone_id":"gtfs:","stop_url":" ","loc_type":" ","parent_sta":" ","NumTrips":24,"TripsPerHr":4,"MxWtTime":16,"rte_count":1,"AvgHeadway":15,"MinHeadway":15,"MaxHeadway":15,"MetHdWyLim":1,"route_list":"15","GlobalID":"040f7420-49aa-4f5f-acd6-cfd4ffe731c6"}},{"type":"Feature","id":40,"geometry":{"type":"Point","coordinates":[-81.5375579998871,41.4499179997502]},"properties":{"OBJECTID":40,"Id":0,"stop_id":"gtfs:00521","stop_code":" ","stop_name":"20115 HARVARD AV","stop_desc":" ","zone_id":"gtfs:","stop_url":" ","loc_type":" ","parent_sta":" ","NumTrips":24,"TripsPerHr":4,"MxWtTime":16,"rte_count":1,"AvgHeadway":15,"MinHeadway":15,"MaxHeadway":15,"MetHdWyLim":1,"route_list":"15","GlobalID":"d3cf488f-e6f1-4190-9a79-c1b8615198d2"}},{"type":"Feature","id":41,"geometry":{"type":"Point","coordinates":[-81.8425770008551,41.4491880002825]},"properties":{"OBJECTID":41,"Id":0,"stop_id":"gtfs:00522","stop_code":" ","stop_name":"20123 LORAIN RD","stop_desc":" ","zone_id":"gtfs:","stop_url":" ","loc_type":" ","parent_sta":" ","NumTrips":24,"TripsPerHr":4,"MxWtTime":16,"rte_count":1,"AvgHeadway":15,"MinHeadway":15,"MaxHeadway":15,"MetHdWyLim":1,"route_list":"22","GlobalID":"b358a6ea-0dbd-4aa7-8b11-7172e0dca318"}},{"type":"Feature","id":42,"geometry":{"type":"Point","coordinates":[-81.8483110003707,41.4478380001115]},"properties":{"OBJECTID":42,"Id":0,"stop_id":"gtfs:00544","stop_code":" ","stop_name":"20600 LORAIN RD","stop_desc":" ","zone_id":"gtfs:","stop_url":" ","loc_type":" ","parent_sta":" ","NumTrips":24,"TripsPerHr":4,"MxWtTime":16,"rte_count":1,"AvgHeadway":15,"MinHeadway":15,"MaxHeadway":15,"MetHdWyLim":1,"route_list":"22","GlobalID":"8b59d40b-b921-4cea-a1c1-b18ad52f2b7d"}},{"type":"Feature","id":43,"geometry":{"type":"Point","coordinates":[-81.8489789997587,41.4475039999395]},"properties":{"OBJECTID":43,"Id":0,"stop_id":"gtfs:00545","stop_code":" ","stop_name":"20627 LORAIN RD","stop_desc":" ","zone_id":"gtfs:","stop_url":" ","loc_type":" ","parent_sta":" ","NumTrips":24,"TripsPerHr":4,"MxWtTime":16,"rte_count":1,"AvgHeadway":15,"MinHeadway":15,"MaxHeadway":15,"MetHdWyLim":1,"route_list":"22","GlobalID":"488153df-2788-4d8a-a581-c64257f5a784"}},{"type":"Feature","id":44,"geometry":{"type":"Point","coordinates":[-81.6741650001516,41.5116520004913]},"properties":{"OBJECTID":44,"Id":0,"stop_id":"gtfs:00832","stop_code":" ","stop_name":"ST. CLAIR AV & E 26TH ST","stop_desc":" ","zone_id":"gtfs:","stop_url":" ","loc_type":" ","parent_sta":" ","NumTrips":24,"TripsPerHr":4,"MxWtTime":15,"rte_count":1,"AvgHeadway":15,"MinHeadway":15,"MaxHeadway":15,"MetHdWyLim":1,"route_list":"1","GlobalID":"304ad6da-6155-4f03-981a-e8817e3bbd4f"}},{"type":"Feature","id":45,"geometry":{"type":"Point","coordinates":[-81.6191269998986,41.4805090001205]},"properties":{"OBJECTID":45,"Id":0,"stop_id":"gtfs:00956","stop_code":" ","stop_name":"2880 WOODHILL RD","stop_desc":" ","zone_id":"gtfs:","stop_url":" ","loc_type":" ","parent_sta":" ","NumTrips":24,"TripsPerHr":4,"MxWtTime":17,"rte_count":1,"AvgHeadway":15,"MinHeadway":15,"MaxHeadway":15,"MetHdWyLim":1,"route_list":"10","GlobalID":"00ba1705-521d-4528-8f5b-23575ff1b318"}},{"type":"Feature","id":46,"geometry":{"type":"Point","coordinates":[-81.6208339999194,41.4769709996316]},"properties":{"OBJECTID":46,"Id":0,"stop_id":"gtfs:00999","stop_code":" ","stop_name":"WOODHILL RD & PARKVIEW AV","stop_desc":" ","zone_id":"gtfs:","stop_url":" ","loc_type":" ","parent_sta":" ","NumTrips":23,"TripsPerHr":3.83333333333,"MxWtTime":17,"rte_count":1,"AvgHeadway":15,"MinHeadway":15,"MaxHeadway":15,"MetHdWyLim":1,"route_list":"10","GlobalID":"9e0158bc-c635-4fec-9e73-3d492bdbe840"}},{"type":"Feature","id":47,"geometry":{"type":"Point","coordinates":[-81.6208669997941,41.4771969994621]},"properties":{"OBJECTID":47,"Id":0,"stop_id":"gtfs:01016","stop_code":" ","stop_name":"WOODHILL RD & PARKVIEW AV","stop_desc":" ","zone_id":"gtfs:","stop_url":" ","loc_type":" ","parent_sta":" ","NumTrips":24,"TripsPerHr":4,"MxWtTime":17,"rte_count":1,"AvgHeadway":15,"MinHeadway":15,"MaxHeadway":15,"MetHdWyLim":1,"route_list":"10","GlobalID":"a2eee351-73db-4844-9a3b-13ceec9c7986"}},{"type":"Feature","id":48,"geometry":{"type":"Point","coordinates":[-81.70011000021,41.4652570000183]},"properties":{"OBJECTID":48,"Id":0,"stop_id":"gtfs:01087","stop_code":" ","stop_name":"W 25TH ST & MEYER AV","stop_desc":" ","zone_id":"gtfs:","stop_url":" ","loc_type":" ","parent_sta":" ","NumTrips":24,"TripsPerHr":4,"MxWtTime":15,"rte_count":1,"AvgHeadway":15,"MinHeadway":15,"MaxHeadway":15,"MetHdWyLim":1,"route_list":"51","GlobalID":"fd91a965-62c6-427e-bb78-c3a606edde57"}},{"type":"Feature","id":49,"geometry":{"type":"Point","coordinates":[-81.8528009992679,41.4602260006868]},"properties":{"OBJECTID":49,"Id":0,"stop_id":"gtfs:01100","stop_code":" ","stop_name":"3360 W 210TH ST","stop_desc":" ","zone_id":"gtfs:","stop_url":" ","loc_type":" ","parent_sta":" ","NumTrips":36,"TripsPerHr":6,"MxWtTime":31,"rte_count":2,"AvgHeadway":22.5,"MinHeadway":15,"MaxHeadway":30,"MetHdWyLim":1,"route_list":"22, 55","GlobalID":"ecff0b7b-a1f5-4241-91b0-41849a0d92a8"}},{"type":"Feature","id":50,"geometry":{"type":"Point","coordinates":[-81.8526690002991,41.4607870004608]},"properties":{"OBJECTID":50,"Id":0,"stop_id":"gtfs:01120","stop_code":" ","stop_name":"W 210TH ST & WESTGATE 2ND DR","stop_desc":" ","zone_id":"gtfs:","stop_url":" ","loc_type":" ","parent_sta":" ","NumTrips":35,"TripsPerHr":5.83333333333,"MxWtTime":16,"rte_count":2,"AvgHeadway":22.5,"MinHeadway":15,"MaxHeadway":30,"MetHdWyLim":1,"route_list":"22, 55","GlobalID":"259a1f98-0c92-4437-8816-dc9ec674d434"}},{"type":"Feature","id":51,"geometry":{"type":"Point","coordinates":[-81.6215319991809,41.4654669998567]},"properties":{"OBJECTID":51,"Id":0,"stop_id":"gtfs:01149","stop_code":" ","stop_name":"E 93RD ST & HEATH AV","stop_desc":" ","zone_id":"gtfs:","stop_url":" ","loc_type":" ","parent_sta":" ","NumTrips":23,"TripsPerHr":3.83333333333,"MxWtTime":17,"rte_count":1,"AvgHeadway":15,"MinHeadway":15,"MaxHeadway":15,"MetHdWyLim":1,"route_list":"10","GlobalID":"3a67aa37-d316-4cdf-bef5-1cba0e907d91"}},{"type":"Feature","id":52,"geometry":{"type":"Point","coordinates":[-81.6214819998564,41.4578269999925]},"properties":{"OBJECTID":52,"Id":0,"stop_id":"gtfs:01199","stop_code":" ","stop_name":"3720 E 93RD ST","stop_desc":" ","zone_id":"gtfs:","stop_url":" ","loc_type":" ","parent_sta":" ","NumTrips":24,"TripsPerHr":4,"MxWtTime":17,"rte_count":1,"AvgHeadway":15,"MinHeadway":15,"MaxHeadway":15,"MetHdWyLim":1,"route_list":"10","GlobalID":"3e2e5527-ae3c-4d6f-92f8-4dd590e77240"}},{"type":"Feature","id":53,"geometry":{"type":"Point","coordinates":[-81.8527710004089,41.4580849999546]},"properties":{"OBJECTID":53,"Id":0,"stop_id":"gtfs:01209","stop_code":" ","stop_name":"3580 W 210TH ST","stop_desc":" ","zone_id":"gtfs:","stop_url":" ","loc_type":" ","parent_sta":" ","NumTrips":36,"TripsPerHr":6,"MxWtTime":32,"rte_count":2,"AvgHeadway":22.5,"MinHeadway":15,"MaxHeadway":30,"MetHdWyLim":1,"route_list":"22, 55","GlobalID":"9236a606-7506-4f13-8c9e-5d3336225d3b"}},{"type":"Feature","id":54,"geometry":{"type":"Point","coordinates":[-81.8528569993972,41.4563289994052]},"properties":{"OBJECTID":54,"Id":0,"stop_id":"gtfs:01218","stop_code":" ","stop_name":"W 210TH ST & RESERVE CT","stop_desc":" ","zone_id":"gtfs:","stop_url":" ","loc_type":" ","parent_sta":" ","NumTrips":36,"TripsPerHr":6,"MxWtTime":31,"rte_count":2,"AvgHeadway":22.5,"MinHeadway":15,"MaxHeadway":30,"MetHdWyLim":1,"route_list":"22, 55","GlobalID":"89350316-771c-4528-94b0-c4ef06cf9767"}},{"type":"Feature","id":55,"geometry":{"type":"Point","coordinates":[-81.8528690001426,41.4556500001597]},"properties":{"OBJECTID":55,"Id":0,"stop_id":"gtfs:01219","stop_code":" ","stop_name":"W 210TH ST & RESERVE CT","stop_desc":" ","zone_id":"gtfs:","stop_url":" ","loc_type":" ","parent_sta":" ","NumTrips":36,"TripsPerHr":6,"MxWtTime":32,"rte_count":2,"AvgHeadway":22.5,"MinHeadway":15,"MaxHeadway":30,"MetHdWyLim":1,"route_list":"22, 55","GlobalID":"6b06152d-a96a-4f01-b8f8-d3c3a03e8578"}},{"type":"Feature","id":56,"geometry":{"type":"Point","coordinates":[-81.7045749999704,41.441959000149]},"properties":{"OBJECTID":56,"Id":0,"stop_id":"gtfs:01257","stop_code":" ","stop_name":"PEARL RD & BROADVIEW RD","stop_desc":" ","zone_id":"gtfs:","stop_url":" ","loc_type":" ","parent_sta":" ","NumTrips":30,"TripsPerHr":5,"MxWtTime":60,"rte_count":2,"AvgHeadway":37.5,"MinHeadway":15,"MaxHeadway":60,"MetHdWyLim":1,"route_list":"51, 53","GlobalID":"ba1d25fd-1e71-4951-968d-f4301d2d2b22"}},{"type":"Feature","id":57,"geometry":{"type":"Point","coordinates":[-81.6539029992304,41.4883609996181]},"properties":{"OBJECTID":57,"Id":0,"stop_id":"gtfs:01424","stop_code":" ","stop_name":"4966 WOODLAND AV","stop_desc":" ","zone_id":"gtfs:","stop_url":" ","loc_type":" ","parent_sta":" ","NumTrips":24,"TripsPerHr":4,"MxWtTime":16,"rte_count":1,"AvgHeadway":15,"MinHeadway":15,"MaxHeadway":15,"MetHdWyLim":1,"route_list":"14","GlobalID":"687d825c-6108-4316-81fc-35a24b30460c"}},{"type":"Feature","id":58,"geometry":{"type":"Point","coordinates":[-81.6540390000382,41.5169909998252]},"properties":{"OBJECTID":58,"Id":0,"stop_id":"gtfs:01445","stop_code":" ","stop_name":"SUPERIOR AV & E 52ND ST","stop_desc":" ","zone_id":"gtfs:","stop_url":" ","loc_type":" ","parent_sta":" ","NumTrips":24,"TripsPerHr":4,"MxWtTime":17,"rte_count":1,"AvgHeadway":15,"MinHeadway":15,"MaxHeadway":15,"MetHdWyLim":1,"route_list":"3","GlobalID":"35a9512c-11a6-459d-acd4-ab61486966df"}},{"type":"Feature","id":59,"geometry":{"type":"Point","coordinates":[-81.639354999593,41.5191580006624]},"properties":{"OBJECTID":59,"Id":0,"stop_id":"gtfs:01718","stop_code":" ","stop_name":"SUPERIOR AV & ADDISON RD","stop_desc":" ","zone_id":"gtfs:","stop_url":" ","loc_type":" ","parent_sta":" ","NumTrips":24,"TripsPerHr":4,"MxWtTime":17,"rte_count":1,"AvgHeadway":15,"MinHeadway":15,"MaxHeadway":15,"MetHdWyLim":1,"route_list":"3","GlobalID":"24a07a0b-18b6-4c95-94f8-ba7b499b4e04"}},{"type":"Feature","id":60,"geometry":{"type":"Point","coordinates":[-81.6381709993372,41.5284220004785]},"properties":{"OBJECTID":60,"Id":0,"stop_id":"gtfs:01725","stop_code":" ","stop_name":"ST. CLAIR AV & E 72ND ST","stop_desc":" ","zone_id":"gtfs:","stop_url":" ","loc_type":" ","parent_sta":" ","NumTrips":24,"TripsPerHr":4,"MxWtTime":16,"rte_count":1,"AvgHeadway":15,"MinHeadway":15,"MaxHeadway":15,"MetHdWyLim":1,"route_list":"1","GlobalID":"524ea72e-fa29-4368-8fe1-5b73607281a6"}},{"type":"Feature","id":61,"geometry":{"type":"Point","coordinates":[-81.6283409999155,41.46340400058]},"properties":{"OBJECTID":61,"Id":0,"stop_id":"gtfs:01814","stop_code":" ","stop_name":"8500 UNION AV","stop_desc":" ","zone_id":"gtfs:","stop_url":" ","loc_type":" ","parent_sta":" ","NumTrips":24,"TripsPerHr":4,"MxWtTime":17,"rte_count":1,"AvgHeadway":15,"MinHeadway":15,"MaxHeadway":15,"MetHdWyLim":1,"route_list":"15","GlobalID":"b68ae044-608e-47cc-965c-8e6c5dc7ed57"}},{"type":"Feature","id":62,"geometry":{"type":"Point","coordinates":[-81.746299999897,41.4695820000027]},"properties":{"OBJECTID":62,"Id":0,"stop_id":"gtfs:01861","stop_code":" ","stop_name":"9025 LORAIN AV","stop_desc":" ","zone_id":"gtfs:","stop_url":" ","loc_type":" ","parent_sta":" ","NumTrips":24,"TripsPerHr":4,"MxWtTime":16,"rte_count":1,"AvgHeadway":15,"MinHeadway":15,"MaxHeadway":15,"MetHdWyLim":1,"route_list":"22","GlobalID":"6e0fe9b4-89ef-4f89-bf23-5342eb5ea918"}},{"type":"Feature","id":63,"geometry":{"type":"Point","coordinates":[-81.6249480003595,41.5344369994924]},"properties":{"OBJECTID":63,"Id":0,"stop_id":"gtfs:01869","stop_code":" ","stop_name":"9100 ST. CLAIR AV","stop_desc":" ","zone_id":"gtfs:","stop_url":" ","loc_type":" ","parent_sta":" ","NumTrips":24,"TripsPerHr":4,"MxWtTime":15,"rte_count":1,"AvgHeadway":15,"MinHeadway":15,"MaxHeadway":15,"MetHdWyLim":1,"route_list":"1","GlobalID":"8a641f25-8cf8-4796-a57b-ee9a323dbbbe"}},{"type":"Feature","id":64,"geometry":{"type":"Point","coordinates":[-81.6222139996444,41.5356819994819]},"properties":{"OBJECTID":64,"Id":0,"stop_id":"gtfs:01895","stop_code":" ","stop_name":"9413 ST. CLAIR AV","stop_desc":" ","zone_id":"gtfs:","stop_url":" ","loc_type":" ","parent_sta":" ","NumTrips":24,"TripsPerHr":4,"MxWtTime":16,"rte_count":1,"AvgHeadway":15,"MinHeadway":15,"MaxHeadway":15,"MetHdWyLim":1,"route_list":"1","GlobalID":"a3b4fd73-0063-43a2-b985-cf446d6c431e"}},{"type":"Feature","id":65,"geometry":{"type":"Point","coordinates":[-81.6199959995132,41.4635870001512]},"properties":{"OBJECTID":65,"Id":0,"stop_id":"gtfs:01896","stop_code":" ","stop_name":"9414 UNION AV","stop_desc":" ","zone_id":"gtfs:","stop_url":" ","loc_type":" ","parent_sta":" ","NumTrips":24,"TripsPerHr":4,"MxWtTime":16,"rte_count":1,"AvgHeadway":15,"MinHeadway":15,"MaxHeadway":15,"MetHdWyLim":1,"route_list":"15","GlobalID":"f8ab15f9-a68c-4f18-a072-e30f9168a16d"}},{"type":"Feature","id":66,"geometry":{"type":"Point","coordinates":[-81.6197549997539,41.4634840001484]},"properties":{"OBJECTID":66,"Id":0,"stop_id":"gtfs:01899","stop_code":" ","stop_name":"9422 UNION AV","stop_desc":" ","zone_id":"gtfs:","stop_url":" ","loc_type":" ","parent_sta":" ","NumTrips":24,"TripsPerHr":4,"MxWtTime":17,"rte_count":1,"AvgHeadway":15,"MinHeadway":15,"MaxHeadway":15,"MetHdWyLim":1,"route_list":"15","GlobalID":"6286b2ca-cb80-40ea-a7de-d03cfa371697"}},{"type":"Feature","id":67,"geometry":{"type":"Point","coordinates":[-81.617264999855,41.4710280005193]},"properties":{"OBJECTID":67,"Id":0,"stop_id":"gtfs:01911","stop_code":" ","stop_name":"9700 KINSMAN RD","stop_desc":" ","zone_id":"gtfs:","stop_url":" ","loc_type":" ","parent_sta":" ","NumTrips":24,"TripsPerHr":4,"MxWtTime":16,"rte_count":1,"AvgHeadway":15,"MinHeadway":15,"MaxHeadway":15,"MetHdWyLim":1,"route_list":"14","GlobalID":"64bff273-d3a5-4538-8d9b-766cf0d459f4"}},{"type":"Feature","id":68,"geometry":{"type":"Point","coordinates":[-81.6145729992712,41.4704590000009]},"properties":{"OBJECTID":68,"Id":0,"stop_id":"gtfs:01919","stop_code":" ","stop_name":"9934 KINSMAN RD","stop_desc":" ","zone_id":"gtfs:","stop_url":" ","loc_type":" ","parent_sta":" ","NumTrips":24,"TripsPerHr":4,"MxWtTime":16,"rte_count":1,"AvgHeadway":15,"MinHeadway":15,"MaxHeadway":15,"MetHdWyLim":1,"route_list":"14","GlobalID":"06fb6226-3aec-4b72-97a3-532423689174"}},{"type":"Feature","id":69,"geometry":{"type":"Point","coordinates":[-81.6543389998825,41.4700209998809]},"properties":{"OBJECTID":69,"Id":0,"stop_id":"gtfs:02149","stop_code":" ","stop_name":"BROADWAY & MC BRIDE AV","stop_desc":" ","zone_id":"gtfs:","stop_url":" ","loc_type":" ","parent_sta":" ","NumTrips":48,"TripsPerHr":8,"MxWtTime":17,"rte_count":2,"AvgHeadway":15,"MinHeadway":15,"MaxHeadway":15,"MetHdWyLim":2,"route_list":"15, 19","GlobalID":"302ab3d8-97a7-49a8-857b-e705fec2553e"}},{"type":"Feature","id":70,"geometry":{"type":"Point","coordinates":[-81.6425890005274,41.4613599996838]},"properties":{"OBJECTID":70,"Id":0,"stop_id":"gtfs:02354","stop_code":" ","stop_name":"BROADWAY & AETNA RD","stop_desc":" ","zone_id":"gtfs:","stop_url":" ","loc_type":" ","parent_sta":" ","NumTrips":36,"TripsPerHr":6,"MxWtTime":60,"rte_count":3,"AvgHeadway":45,"MinHeadway":15,"MaxHeadway":60,"MetHdWyLim":1,"route_list":"16, 19, 2","GlobalID":"a38e4bc5-0c4a-45da-b5fa-0021ca960af4"}},{"type":"Feature","id":71,"geometry":{"type":"Point","coordinates":[-81.6418320000932,41.4609230005121]},"properties":{"OBJECTID":71,"Id":0,"stop_id":"gtfs:02355","stop_code":" ","stop_name":"BROADWAY & AETNA RD","stop_desc":" ","zone_id":"gtfs:","stop_url":" ","loc_type":" ","parent_sta":" ","NumTrips":36,"TripsPerHr":6,"MxWtTime":61,"rte_count":3,"AvgHeadway":45,"MinHeadway":15,"MaxHeadway":60,"MetHdWyLim":1,"route_list":"16, 19, 2","GlobalID":"3bc6735b-92d9-4103-bc9d-b1e6f09cdfec"}},{"type":"Feature","id":72,"geometry":{"type":"Point","coordinates":[-81.6527199997126,41.468326999972]},"properties":{"OBJECTID":72,"Id":0,"stop_id":"gtfs:02357","stop_code":" ","stop_name":"BROADWAY & BARKWILL AV","stop_desc":" ","zone_id":"gtfs:","stop_url":" ","loc_type":" ","parent_sta":" ","NumTrips":48,"TripsPerHr":8,"MxWtTime":16,"rte_count":2,"AvgHeadway":15,"MinHeadway":15,"MaxHeadway":15,"MetHdWyLim":2,"route_list":"15, 19","GlobalID":"b0534905-a9a5-4a5f-93b0-872bb90c233a"}},{"type":"Feature","id":73,"geometry":{"type":"Point","coordinates":[-81.6295570001066,41.4504489999553]},"properties":{"OBJECTID":73,"Id":0,"stop_id":"gtfs:02360","stop_code":" ","stop_name":"BROADWAY & BOOTH AV","stop_desc":" ","zone_id":"gtfs:","stop_url":" ","loc_type":" ","parent_sta":" ","NumTrips":24,"TripsPerHr":4,"MxWtTime":16,"rte_count":1,"AvgHeadway":15,"MinHeadway":15,"MaxHeadway":15,"MetHdWyLim":1,"route_list":"19","GlobalID":"9bd62d8f-af22-4d8c-9d85-afb9399e8149"}},{"type":"Feature","id":74,"geometry":{"type":"Point","coordinates":[-81.6288730001462,41.4496849998659]},"properties":{"OBJECTID":74,"Id":0,"stop_id":"gtfs:02361","stop_code":" ","stop_name":"BROADWAY & BRUNNER AV","stop_desc":" ","zone_id":"gtfs:","stop_url":" ","loc_type":" ","parent_sta":" ","NumTrips":24,"TripsPerHr":4,"MxWtTime":16,"rte_count":1,"AvgHeadway":15,"MinHeadway":15,"MaxHeadway":15,"MetHdWyLim":1,"route_list":"19","GlobalID":"5f55d60d-5b6c-49c6-b2cd-61f0a59c4cd7"}},{"type":"Feature","id":75,"geometry":{"type":"Point","coordinates":[-81.6500499997315,41.4658279997864]},"properties":{"OBJECTID":75,"Id":0,"stop_id":"gtfs:02362","stop_code":" ","stop_name":"BROADWAY & CABLE AV","stop_desc":" ","zone_id":"gtfs:","stop_url":" ","loc_type":" ","parent_sta":" ","NumTrips":54,"TripsPerHr":9,"MxWtTime":60,"rte_count":3,"AvgHeadway":30,"MinHeadway":15,"MaxHeadway":60,"MetHdWyLim":2,"route_list":"15, 16, 19","GlobalID":"555dd2b6-dbb3-4f6d-8c92-f17e5618f79f"}},{"type":"Feature","id":76,"geometry":{"type":"Point","coordinates":[-81.6492230000231,41.4653560005273]},"properties":{"OBJECTID":76,"Id":0,"stop_id":"gtfs:02363","stop_code":" ","stop_name":"BROADWAY & ENGLE AV","stop_desc":" ","zone_id":"gtfs:","stop_url":" ","loc_type":" ","parent_sta":" ","NumTrips":54,"TripsPerHr":9,"MxWtTime":61,"rte_count":3,"AvgHeadway":30,"MinHeadway":15,"MaxHeadway":60,"MetHdWyLim":2,"route_list":"15, 16, 19","GlobalID":"85ac0412-4181-478c-bb83-d68ddaee73de"}},{"type":"Feature","id":77,"geometry":{"type":"Point","coordinates":[-81.6341750001705,41.4542290001823]},"properties":{"OBJECTID":77,"Id":0,"stop_id":"gtfs:02364","stop_code":" ","stop_name":"BROADWAY & CANTON AV","stop_desc":" ","zone_id":"gtfs:","stop_url":" ","loc_type":" ","parent_sta":" ","NumTrips":24,"TripsPerHr":4,"MxWtTime":16,"rte_count":1,"AvgHeadway":15,"MinHeadway":15,"MaxHeadway":15,"MetHdWyLim":1,"route_list":"19","GlobalID":"3e52c247-b478-4b0a-8569-cdd2530752db"}},{"type":"Feature","id":78,"geometry":{"type":"Point","coordinates":[-81.6855999995407,41.4946759994654]},"properties":{"OBJECTID":78,"Id":0,"stop_id":"gtfs:02368","stop_code":" ","stop_name":"ONTARIO ST & CARNEGIE AV","stop_desc":" ","zone_id":"gtfs:","stop_url":" ","loc_type":" ","parent_sta":" ","NumTrips":30,"TripsPerHr":5,"MxWtTime":60,"rte_count":2,"AvgHeadway":37.5,"MinHeadway":15,"MaxHeadway":60,"MetHdWyLim":1,"route_list":"19, 251, 53","GlobalID":"da8900b3-426b-434d-a905-08ce90e77b18"}},{"type":"Feature","id":79,"geometry":{"type":"Point","coordinates":[-81.6619750000567,41.477331000337]},"properties":{"OBJECTID":79,"Id":0,"stop_id":"gtfs:02374","stop_code":" ","stop_name":"BROADWAY & DILLE AV","stop_desc":" ","zone_id":"gtfs:","stop_url":" ","loc_type":" ","parent_sta":" ","NumTrips":48,"TripsPerHr":8,"MxWtTime":16,"rte_count":2,"AvgHeadway":15,"MinHeadway":15,"MaxHeadway":15,"MetHdWyLim":2,"route_list":"15, 19","GlobalID":"d967e9b1-9ab2-4e07-ab0e-5b728aee1fdc"}},{"type":"Feature","id":80,"geometry":{"type":"Point","coordinates":[-81.6617540004051,41.4773079999867]},"properties":{"OBJECTID":80,"Id":0,"stop_id":"gtfs:02375","stop_code":" ","stop_name":"BROADWAY & DILLE AV","stop_desc":" ","zone_id":"gtfs:","stop_url":" ","loc_type":" ","parent_sta":" ","NumTrips":48,"TripsPerHr":8,"MxWtTime":17,"rte_count":2,"AvgHeadway":15,"MinHeadway":15,"MaxHeadway":15,"MetHdWyLim":2,"route_list":"15, 19","GlobalID":"12529968-6ca4-4595-8330-ba8c4c7a6bb7"}},{"type":"Feature","id":81,"geometry":{"type":"Point","coordinates":[-81.6516350003992,41.4673020001934]},"properties":{"OBJECTID":81,"Id":0,"stop_id":"gtfs:02381","stop_code":" ","stop_name":"BROADWAY & E 55TH ST","stop_desc":" ","zone_id":"gtfs:","stop_url":" ","loc_type":" ","parent_sta":" ","NumTrips":48,"TripsPerHr":8,"MxWtTime":16,"rte_count":2,"AvgHeadway":15,"MinHeadway":15,"MaxHeadway":15,"MetHdWyLim":2,"route_list":"15, 19","GlobalID":"081e6b4a-be3b-488c-a3ed-67d1efc3511e"}},{"type":"Feature","id":82,"geometry":{"type":"Point","coordinates":[-81.6507720003377,41.4666859994686]},"properties":{"OBJECTID":82,"Id":0,"stop_id":"gtfs:02382","stop_code":" ","stop_name":"BROADWAY & E 55TH ST","stop_desc":" ","zone_id":"gtfs:","stop_url":" ","loc_type":" ","parent_sta":" ","NumTrips":54,"TripsPerHr":9,"MxWtTime":61,"rte_count":3,"AvgHeadway":30,"MinHeadway":15,"MaxHeadway":60,"MetHdWyLim":2,"route_list":"15, 16, 19","GlobalID":"c8affe76-7b6c-41a2-990e-fa6f13ab3eaf"}},{"type":"Feature","id":83,"geometry":{"type":"Point","coordinates":[-81.6444849992265,41.4620869994511]},"properties":{"OBJECTID":83,"Id":0,"stop_id":"gtfs:02383","stop_code":" ","stop_name":"BROADWAY & E 65TH ST","stop_desc":" ","zone_id":"gtfs:","stop_url":" ","loc_type":" ","parent_sta":" ","NumTrips":36,"TripsPerHr":6,"MxWtTime":60,"rte_count":3,"AvgHeadway":45,"MinHeadway":15,"MaxHeadway":60,"MetHdWyLim":1,"route_list":"16, 19, 2","GlobalID":"05902d7c-eaa8-48b4-9778-44d1ab5f35c7"}},{"type":"Feature","id":84,"geometry":{"type":"Point","coordinates":[-81.644770000671,41.4623299998527]},"properties":{"OBJECTID":84,"Id":0,"stop_id":"gtfs:02384","stop_code":" ","stop_name":"BROADWAY & E 65TH ST","stop_desc":" ","zone_id":"gtfs:","stop_url":" ","loc_type":" ","parent_sta":" ","NumTrips":36,"TripsPerHr":6,"MxWtTime":61,"rte_count":3,"AvgHeadway":45,"MinHeadway":15,"MaxHeadway":60,"MetHdWyLim":1,"route_list":"16, 19, 2","GlobalID":"c95f043c-8871-44bc-a53a-481d414b92ef"}},{"type":"Feature","id":85,"geometry":{"type":"Point","coordinates":[-81.6797480000105,41.4925839995338]},"properties":{"OBJECTID":85,"Id":0,"stop_id":"gtfs:02386","stop_code":" ","stop_name":"ONTARIO AV & E 9TH ST","stop_desc":" ","zone_id":"gtfs:","stop_url":" ","loc_type":" ","parent_sta":" ","NumTrips":24,"TripsPerHr":4,"MxWtTime":16,"rte_count":1,"AvgHeadway":15,"MinHeadway":15,"MaxHeadway":15,"MetHdWyLim":1,"route_list":"19","GlobalID":"3560b33b-9468-4073-9e2a-869e80c833b1"}},{"type":"Feature","id":86,"geometry":{"type":"Point","coordinates":[-81.6581349992797,41.4734949995759]},"properties":{"OBJECTID":86,"Id":0,"stop_id":"gtfs:02390","stop_code":" ","stop_name":"BROADWAY & FINN AV","stop_desc":" ","zone_id":"gtfs:","stop_url":" ","loc_type":" ","parent_sta":" ","NumTrips":48,"TripsPerHr":8,"MxWtTime":16,"rte_count":2,"AvgHeadway":15,"MinHeadway":15,"MaxHeadway":15,"MetHdWyLim":2,"route_list":"15, 19","GlobalID":"169372ee-57e7-4058-b438-c92badb6495a"}},{"type":"Feature","id":87,"geometry":{"type":"Point","coordinates":[-81.6581149991774,41.4736640001652]},"properties":{"OBJECTID":87,"Id":0,"stop_id":"gtfs:02391","stop_code":" ","stop_name":"BROADWAY & FINN AV","stop_desc":" ","zone_id":"gtfs:","stop_url":" ","loc_type":" ","parent_sta":" ","NumTrips":48,"TripsPerHr":8,"MxWtTime":17,"rte_count":2,"AvgHeadway":15,"MinHeadway":15,"MaxHeadway":15,"MetHdWyLim":2,"route_list":"15, 19","GlobalID":"5aebf25b-1f68-4ff5-ad09-17ebebf5ab54"}},{"type":"Feature","id":88,"geometry":{"type":"Point","coordinates":[-81.6375809990845,41.4571519996636]},"properties":{"OBJECTID":88,"Id":0,"stop_id":"gtfs:02392","stop_code":" ","stop_name":"BROADWAY & FLEET AV","stop_desc":" ","zone_id":"gtfs:","stop_url":" ","loc_type":" ","parent_sta":" ","NumTrips":24,"TripsPerHr":4,"MxWtTime":16,"rte_count":1,"AvgHeadway":15,"MinHeadway":15,"MaxHeadway":15,"MetHdWyLim":1,"route_list":"19","GlobalID":"0bfb7058-9e5c-4013-b3bc-0fdcd8097074"}},{"type":"Feature","id":89,"geometry":{"type":"Point","coordinates":[-81.6367619997159,41.4566190002177]},"properties":{"OBJECTID":89,"Id":0,"stop_id":"gtfs:02394","stop_code":" ","stop_name":"BROADWAY & OSAGE AV","stop_desc":" ","zone_id":"gtfs:","stop_url":" ","loc_type":" ","parent_sta":" ","NumTrips":24,"TripsPerHr":4,"MxWtTime":17,"rte_count":1,"AvgHeadway":15,"MinHeadway":15,"MaxHeadway":15,"MetHdWyLim":1,"route_list":"19","GlobalID":"cb8a6d80-29cb-47de-b680-a33355542b0f"}},{"type":"Feature","id":90,"geometry":{"type":"Point","coordinates":[-81.6395109998679,41.4588000003336]},"properties":{"OBJECTID":90,"Id":0,"stop_id":"gtfs:02398","stop_code":" ","stop_name":"BROADWAY & FORMAN AV","stop_desc":" ","zone_id":"gtfs:","stop_url":" ","loc_type":" ","parent_sta":" ","NumTrips":36,"TripsPerHr":6,"MxWtTime":60,"rte_count":3,"AvgHeadway":45,"MinHeadway":15,"MaxHeadway":60,"MetHdWyLim":1,"route_list":"16, 19, 2","GlobalID":"d984e91f-cc46-45f2-b1a4-13334f0e72ee"}},{"type":"Feature","id":91,"geometry":{"type":"Point","coordinates":[-81.6395270005758,41.4589459996462]},"properties":{"OBJECTID":91,"Id":0,"stop_id":"gtfs:02400","stop_code":" ","stop_name":"BROADWAY & FORMAN AV","stop_desc":" ","zone_id":"gtfs:","stop_url":" ","loc_type":" ","parent_sta":" ","NumTrips":36,"TripsPerHr":6,"MxWtTime":61,"rte_count":3,"AvgHeadway":45,"MinHeadway":15,"MaxHeadway":60,"MetHdWyLim":1,"route_list":"16, 19, 2","GlobalID":"ff225180-ef18-4861-ae4b-8ba1fe07d3e7"}},{"type":"Feature","id":92,"geometry":{"type":"Point","coordinates":[-81.6598549999842,41.4753689999468]},"properties":{"OBJECTID":92,"Id":0,"stop_id":"gtfs:02404","stop_code":" ","stop_name":"BROADWAY & GALLUP AV","stop_desc":" ","zone_id":"gtfs:","stop_url":" ","loc_type":" ","parent_sta":" ","NumTrips":48,"TripsPerHr":8,"MxWtTime":17,"rte_count":2,"AvgHeadway":15,"MinHeadway":15,"MaxHeadway":15,"MetHdWyLim":2,"route_list":"15, 19","GlobalID":"b697fccc-fb78-472e-9f8b-1e0781db2a27"}},{"type":"Feature","id":93,"geometry":{"type":"Point","coordinates":[-81.6283229994501,41.4492130001124]},"properties":{"OBJECTID":93,"Id":0,"stop_id":"gtfs:02412","stop_code":" ","stop_name":"BROADWAY & HARVARD AV","stop_desc":" ","zone_id":"gtfs:","stop_url":" ","loc_type":" ","parent_sta":" ","NumTrips":24,"TripsPerHr":4,"MxWtTime":16,"rte_count":1,"AvgHeadway":15,"MinHeadway":15,"MaxHeadway":15,"MetHdWyLim":1,"route_list":"19","GlobalID":"be2ff49f-79cc-4e21-b146-534e0ed813c0"}},{"type":"Feature","id":94,"geometry":{"type":"Point","coordinates":[-81.627413000395,41.4486020006126]},"properties":{"OBJECTID":94,"Id":0,"stop_id":"gtfs:02413","stop_code":" ","stop_name":"BROADWAY & HARVARD AV","stop_desc":" ","zone_id":"gtfs:","stop_url":" ","loc_type":" ","parent_sta":" ","NumTrips":30,"TripsPerHr":5,"MxWtTime":61,"rte_count":2,"AvgHeadway":37.5,"MinHeadway":15,"MaxHeadway":60,"MetHdWyLim":1,"route_list":"18, 19","GlobalID":"978d42f1-f0a3-49b5-aff0-9f275135b01f"}},{"type":"Feature","id":95,"geometry":{"type":"Point","coordinates":[-81.6476419995387,41.4640349996624]},"properties":{"OBJECTID":95,"Id":0,"stop_id":"gtfs:02416","stop_code":" ","stop_name":"BROADWAY & MORTON AV","stop_desc":" ","zone_id":"gtfs:","stop_url":" ","loc_type":" ","parent_sta":" ","NumTrips":54,"TripsPerHr":9,"MxWtTime":60,"rte_count":3,"AvgHeadway":30,"MinHeadway":15,"MaxHeadway":60,"MetHdWyLim":2,"route_list":"15, 16, 19","GlobalID":"b5da87b4-e86f-4091-9c40-93ccc4290713"}},{"type":"Feature","id":96,"geometry":{"type":"Point","coordinates":[-81.6307670005911,41.4513059997291]},"properties":{"OBJECTID":96,"Id":0,"stop_id":"gtfs:02419","stop_code":" ","stop_name":"BROADWAY & JONES RD","stop_desc":" ","zone_id":"gtfs:","stop_url":" ","loc_type":" ","parent_sta":" ","NumTrips":24,"TripsPerHr":4,"MxWtTime":16,"rte_count":1,"AvgHeadway":15,"MinHeadway":15,"MaxHeadway":15,"MetHdWyLim":1,"route_list":"19","GlobalID":"1a41d115-f152-4101-8398-6e130438e7fb"}},{"type":"Feature","id":97,"geometry":{"type":"Point","coordinates":[-81.6307770000626,41.4514859998823]},"properties":{"OBJECTID":97,"Id":0,"stop_id":"gtfs:02420","stop_code":" ","stop_name":"BROADWAY & JONES RD","stop_desc":" ","zone_id":"gtfs:","stop_url":" ","loc_type":" ","parent_sta":" ","NumTrips":24,"TripsPerHr":4,"MxWtTime":16,"rte_count":1,"AvgHeadway":15,"MinHeadway":15,"MaxHeadway":15,"MetHdWyLim":1,"route_list":"19","GlobalID":"299f746f-14d5-4109-aa8d-bacfa5774dc5"}},{"type":"Feature","id":98,"geometry":{"type":"Point","coordinates":[-81.654428999205,41.4699279997644]},"properties":{"OBJECTID":98,"Id":0,"stop_id":"gtfs:02426","stop_code":" ","stop_name":"BROADWAY & MC BRIDE AV","stop_desc":" ","zone_id":"gtfs:","stop_url":" ","loc_type":" ","parent_sta":" ","NumTrips":48,"TripsPerHr":8,"MxWtTime":16,"rte_count":2,"AvgHeadway":15,"MinHeadway":15,"MaxHeadway":15,"MetHdWyLim":2,"route_list":"15, 19","GlobalID":"ee4fc99e-7cde-42e6-b666-43108210580a"}},{"type":"Feature","id":99,"geometry":{"type":"Point","coordinates":[-81.6471150000749,41.4638249999932]},"properties":{"OBJECTID":99,"Id":0,"stop_id":"gtfs:02431","stop_code":" ","stop_name":"BROADWAY & MORTON AV","stop_desc":" ","zone_id":"gtfs:","stop_url":" ","loc_type":" ","parent_sta":" ","NumTrips":54,"TripsPerHr":9,"MxWtTime":61,"rte_count":3,"AvgHeadway":30,"MinHeadway":15,"MaxHeadway":60,"MetHdWyLim":2,"route_list":"15, 16, 19","GlobalID":"8f1269dc-1996-4dcb-8592-d01bbc8086be"}},{"type":"Feature","id":100,"geometry":{"type":"Point","coordinates":[-81.6563930000433,41.471786999784]},"properties":{"OBJECTID":100,"Id":0,"stop_id":"gtfs:02432","stop_code":" ","stop_name":"BROADWAY & PERSHING AV","stop_desc":" ","zone_id":"gtfs:","stop_url":" ","loc_type":" ","parent_sta":" ","NumTrips":47,"TripsPerHr":7.83333333333,"MxWtTime":16,"rte_count":2,"AvgHeadway":15,"MinHeadway":15,"MaxHeadway":15,"MetHdWyLim":2,"route_list":"15, 19","GlobalID":"739025bf-a540-42e3-8238-5026e583e53b"}},{"type":"Feature","id":101,"geometry":{"type":"Point","coordinates":[-81.6558700001059,41.471460000767]},"properties":{"OBJECTID":101,"Id":0,"stop_id":"gtfs:02433","stop_code":" ","stop_name":"BROADWAY & PERSHING AV","stop_desc":" ","zone_id":"gtfs:","stop_url":" ","loc_type":" ","parent_sta":" ","NumTrips":48,"TripsPerHr":8,"MxWtTime":17,"rte_count":2,"AvgHeadway":15,"MinHeadway":15,"MaxHeadway":15,"MetHdWyLim":2,"route_list":"15, 19","GlobalID":"4897e2c2-cc47-4526-b070-e09a24f5cb70"}},{"type":"Feature","id":102,"geometry":{"type":"Point","coordinates":[-81.6748079991436,41.4894450000032]},"properties":{"OBJECTID":102,"Id":0,"stop_id":"gtfs:02434","stop_code":" ","stop_name":"2300 BROADWAY","stop_desc":" ","zone_id":"gtfs:","stop_url":" ","loc_type":" ","parent_sta":" ","NumTrips":24,"TripsPerHr":4,"MxWtTime":16,"rte_count":1,"AvgHeadway":15,"MinHeadway":15,"MaxHeadway":15,"MetHdWyLim":1,"route_list":"19","GlobalID":"14a7cc23-8b4a-4d7c-a2a5-2d23a88e258e"}},{"type":"Feature","id":103,"geometry":{"type":"Point","coordinates":[-81.6463009997157,41.4630330000869]},"properties":{"OBJECTID":103,"Id":0,"stop_id":"gtfs:02447","stop_code":" ","stop_name":"BROADWAY & UNION AV","stop_desc":" ","zone_id":"gtfs:","stop_url":" ","loc_type":" ","parent_sta":" ","NumTrips":36,"TripsPerHr":6,"MxWtTime":60,"rte_count":3,"AvgHeadway":45,"MinHeadway":15,"MaxHeadway":60,"MetHdWyLim":1,"route_list":"16, 19, 2","GlobalID":"66c08d7c-38f6-41f1-8998-eed999e2d726"}},{"type":"Feature","id":104,"geometry":{"type":"Point","coordinates":[-81.6257889997037,41.447039999958]},"properties":{"OBJECTID":104,"Id":0,"stop_id":"gtfs:02450","stop_code":" ","stop_name":"BROADWAY & WALKER AV","stop_desc":" ","zone_id":"gtfs:","stop_url":" ","loc_type":" ","parent_sta":" ","NumTrips":30,"TripsPerHr":5,"MxWtTime":61,"rte_count":2,"AvgHeadway":37.5,"MinHeadway":15,"MaxHeadway":60,"MetHdWyLim":1,"route_list":"18, 19","GlobalID":"14e69739-e547-4328-80cf-14b091da8135"}},{"type":"Feature","id":105,"geometry":{"type":"Point","coordinates":[-81.6255749996778,41.4470349999686]},"properties":{"OBJECTID":105,"Id":0,"stop_id":"gtfs:02451","stop_code":" ","stop_name":"BROADWAY & WALKER AV","stop_desc":" ","zone_id":"gtfs:","stop_url":" ","loc_type":" ","parent_sta":" ","NumTrips":30,"TripsPerHr":5,"MxWtTime":61,"rte_count":2,"AvgHeadway":37.5,"MinHeadway":15,"MaxHeadway":60,"MetHdWyLim":1,"route_list":"18, 19","GlobalID":"e46d11ef-d901-4a15-bb09-33afefd37a8a"}},{"type":"Feature","id":106,"geometry":{"type":"Point","coordinates":[-81.6324559996536,41.4529260004501]},"properties":{"OBJECTID":106,"Id":0,"stop_id":"gtfs:02453","stop_code":" ","stop_name":"BROADWAY & WIRE AV","stop_desc":" ","zone_id":"gtfs:","stop_url":" ","loc_type":" ","parent_sta":" ","NumTrips":24,"TripsPerHr":4,"MxWtTime":16,"rte_count":1,"AvgHeadway":15,"MinHeadway":15,"MaxHeadway":15,"MetHdWyLim":1,"route_list":"19","GlobalID":"302eded6-599e-45ec-a71b-947308777c66"}},{"type":"Feature","id":107,"geometry":{"type":"Point","coordinates":[-81.6324709995627,41.4527699997216]},"properties":{"OBJECTID":107,"Id":0,"stop_id":"gtfs:02456","stop_code":" ","stop_name":"BROADWAY & WORLEY AV","stop_desc":" ","zone_id":"gtfs:","stop_url":" ","loc_type":" ","parent_sta":" ","NumTrips":24,"TripsPerHr":4,"MxWtTime":16,"rte_count":1,"AvgHeadway":15,"MinHeadway":15,"MaxHeadway":15,"MetHdWyLim":1,"route_list":"19","GlobalID":"fc703287-f788-420a-ac1c-3f1cbd3e04c3"}},{"type":"Feature","id":108,"geometry":{"type":"Point","coordinates":[-81.6742390008614,41.5002960004246]},"properties":{"OBJECTID":108,"Id":0,"stop_id":"gtfs:02613","stop_code":" ","stop_name":"E 22ND ST & PROSPECT AV","stop_desc":" ","zone_id":"gtfs:","stop_url":" ","loc_type":" ","parent_sta":" ","NumTrips":79,"TripsPerHr":13.1666666667,"MxWtTime":62,"rte_count":5,"AvgHeadway":29,"MinHeadway":15,"MaxHeadway":55,"MetHdWyLim":2,"route_list":"11, 14, 15, 77, 90","GlobalID":"2f77c265-4653-42e2-b2d2-7639fb147e3a"}},{"type":"Feature","id":109,"geometry":{"type":"Point","coordinates":[-81.6742449994721,41.4985889992151]},"properties":{"OBJECTID":109,"Id":0,"stop_id":"gtfs:02675","stop_code":" ","stop_name":"CEDAR AV & E 22ND ST","stop_desc":" ","zone_id":"gtfs:","stop_url":" ","loc_type":" ","parent_sta":" ","NumTrips":79,"TripsPerHr":13.1666666667,"MxWtTime":61,"rte_count":5,"AvgHeadway":28,"MinHeadway":15,"MaxHeadway":50,"MetHdWyLim":2,"route_list":"11, 14, 15, 77, 90","GlobalID":"b81cbfe9-6ffc-4316-82f3-d35ec713050a"}},{"type":"Feature","id":110,"geometry":{"type":"Point","coordinates":[-81.8436649996183,41.4645570006818]},"properties":{"OBJECTID":110,"Id":0,"stop_id":"gtfs:02794","stop_code":" ","stop_name":"CENTER RIDGE RD & LAKEVIEW AV","stop_desc":" ","zone_id":"gtfs:","stop_url":" ","loc_type":" ","parent_sta":" ","NumTrips":36,"TripsPerHr":6,"MxWtTime":32,"rte_count":2,"AvgHeadway":22.5,"MinHeadway":15,"MaxHeadway":30,"MetHdWyLim":1,"route_list":"25, 26","GlobalID":"fb21be0f-6292-4af8-bddf-0a50052d55a3"}},{"type":"Feature","id":111,"geometry":{"type":"Point","coordinates":[-81.8496170007738,41.4626779999218]},"properties":{"OBJECTID":111,"Id":0,"stop_id":"gtfs:02818","stop_code":" ","stop_name":"CENTER RIDGE RD & FORESTVIEW AV","stop_desc":" ","zone_id":"gtfs:","stop_url":" ","loc_type":" ","parent_sta":" ","NumTrips":36,"TripsPerHr":6,"MxWtTime":30,"rte_count":2,"AvgHeadway":22.5,"MinHeadway":15,"MaxHeadway":30,"MetHdWyLim":1,"route_list":"25, 26","GlobalID":"3c67844c-ca27-4844-91b0-fe1ae3a30eee"}},{"type":"Feature","id":112,"geometry":{"type":"Point","coordinates":[-81.8430349996586,41.4645599996533]},"properties":{"OBJECTID":112,"Id":0,"stop_id":"gtfs:02827","stop_code":" ","stop_name":"CENTER RIDGE RD & LAKEVIEW AV","stop_desc":" ","zone_id":"gtfs:","stop_url":" ","loc_type":" ","parent_sta":" ","NumTrips":36,"TripsPerHr":6,"MxWtTime":30,"rte_count":2,"AvgHeadway":22.5,"MinHeadway":15,"MaxHeadway":30,"MetHdWyLim":1,"route_list":"25, 26","GlobalID":"cb886f89-7591-4d4b-a168-15a8b044632b"}},{"type":"Feature","id":113,"geometry":{"type":"Point","coordinates":[-81.8516619999005,41.4619869993237]},"properties":{"OBJECTID":113,"Id":0,"stop_id":"gtfs:02853","stop_code":" ","stop_name":"CENTER RIDGE RD & W 210TH ST","stop_desc":" ","zone_id":"gtfs:","stop_url":" ","loc_type":" ","parent_sta":" ","NumTrips":36,"TripsPerHr":6,"MxWtTime":30,"rte_count":2,"AvgHeadway":22.5,"MinHeadway":15,"MaxHeadway":30,"MetHdWyLim":1,"route_list":"25, 26","GlobalID":"57b2548b-cf3e-483f-868a-1d47f9fc70f1"}},{"type":"Feature","id":114,"geometry":{"type":"Point","coordinates":[-81.5586740006912,41.4644529998967]},"properties":{"OBJECTID":114,"Id":0,"stop_id":"gtfs:02916","stop_code":" ","stop_name":"CHAGRIN BLVD & AVALON RD","stop_desc":" ","zone_id":"gtfs:","stop_url":" ","loc_type":" ","parent_sta":" ","NumTrips":24,"TripsPerHr":4,"MxWtTime":17,"rte_count":1,"AvgHeadway":15,"MinHeadway":15,"MaxHeadway":15,"MetHdWyLim":1,"route_list":"14","GlobalID":"7ede97bf-5338-4740-a711-5cf9142a9220"}},{"type":"Feature","id":115,"geometry":{"type":"Point","coordinates":[-81.558765999943,41.4646250003295]},"properties":{"OBJECTID":115,"Id":0,"stop_id":"gtfs:02917","stop_code":" ","stop_name":"CHAGRIN BLVD & AVALON RD","stop_desc":" ","zone_id":"gtfs:","stop_url":" ","loc_type":" ","parent_sta":" ","NumTrips":24,"TripsPerHr":4,"MxWtTime":16,"rte_count":1,"AvgHeadway":15,"MinHeadway":15,"MaxHeadway":15,"MetHdWyLim":1,"route_list":"14","GlobalID":"2c1d4eb8-92fa-4710-ad9e-1eafe9749185"}},{"type":"Feature","id":116,"geometry":{"type":"Point","coordinates":[-81.5675259998237,41.4644149998858]},"properties":{"OBJECTID":116,"Id":0,"stop_id":"gtfs:02922","stop_code":" ","stop_name":"CHAGRIN BLVD & CHELTON RD","stop_desc":" ","zone_id":"gtfs:","stop_url":" ","loc_type":" ","parent_sta":" ","NumTrips":24,"TripsPerHr":4,"MxWtTime":17,"rte_count":1,"AvgHeadway":15,"MinHeadway":15,"MaxHeadway":15,"MetHdWyLim":1,"route_list":"14","GlobalID":"0eedad1c-b654-4e6b-b4f1-8c91471fd1fd"}},{"type":"Feature","id":117,"geometry":{"type":"Point","coordinates":[-81.5674759998751,41.4645109999607]},"properties":{"OBJECTID":117,"Id":0,"stop_id":"gtfs:02923","stop_code":" ","stop_name":"CHAGRIN BLVD & CHELTON RD","stop_desc":" ","zone_id":"gtfs:","stop_url":" ","loc_type":" ","parent_sta":" ","NumTrips":24,"TripsPerHr":4,"MxWtTime":16,"rte_count":1,"AvgHeadway":15,"MinHeadway":15,"MaxHeadway":15,"MetHdWyLim":1,"route_list":"14","GlobalID":"9e4e93fd-266a-488b-a8fc-54bf9b9c2637"}},{"type":"Feature","id":118,"geometry":{"type":"Point","coordinates":[-81.5519620006008,41.4644719998021]},"properties":{"OBJECTID":118,"Id":0,"stop_id":"gtfs:02927","stop_code":" ","stop_name":"CHAGRIN BLVD & GLENCAIRN RD","stop_desc":" ","zone_id":"gtfs:","stop_url":" ","loc_type":" ","parent_sta":" ","NumTrips":24,"TripsPerHr":4,"MxWtTime":17,"rte_count":1,"AvgHeadway":15,"MinHeadway":15,"MaxHeadway":15,"MetHdWyLim":1,"route_list":"14","GlobalID":"90075a37-cdea-4ac8-bdf6-f74fc1f7824c"}},{"type":"Feature","id":119,"geometry":{"type":"Point","coordinates":[-81.5515860004079,41.4646029994638]},"properties":{"OBJECTID":119,"Id":0,"stop_id":"gtfs:02928","stop_code":" ","stop_name":"CHAGRIN BLVD & GLENCAIRN RD","stop_desc":" ","zone_id":"gtfs:","stop_url":" ","loc_type":" ","parent_sta":" ","NumTrips":24,"TripsPerHr":4,"MxWtTime":16,"rte_count":1,"AvgHeadway":15,"MinHeadway":15,"MaxHeadway":15,"MetHdWyLim":1,"route_list":"14","GlobalID":"166ee72c-0ec3-4eba-84e4-59f6fa9032e2"}},{"type":"Feature","id":120,"geometry":{"type":"Point","coordinates":[-81.5557109999056,41.4644530004716]},"properties":{"OBJECTID":120,"Id":0,"stop_id":"gtfs:02930","stop_code":" ","stop_name":"CHAGRIN BLVD & INGLESIDE RD","stop_desc":" ","zone_id":"gtfs:","stop_url":" ","loc_type":" ","parent_sta":" ","NumTrips":24,"TripsPerHr":4,"MxWtTime":17,"rte_count":1,"AvgHeadway":15,"MinHeadway":15,"MaxHeadway":15,"MetHdWyLim":1,"route_list":"14","GlobalID":"aa170e62-3f98-40c7-a86b-93e1d189e338"}},{"type":"Feature","id":121,"geometry":{"type":"Point","coordinates":[-81.5553449999341,41.4645820000997]},"properties":{"OBJECTID":121,"Id":0,"stop_id":"gtfs:02931","stop_code":" ","stop_name":"CHAGRIN BLVD & INGLESIDE RD","stop_desc":" ","zone_id":"gtfs:","stop_url":" ","loc_type":" ","parent_sta":" ","NumTrips":24,"TripsPerHr":4,"MxWtTime":16,"rte_count":1,"AvgHeadway":15,"MinHeadway":15,"MaxHeadway":15,"MetHdWyLim":1,"route_list":"14","GlobalID":"1178c766-c5f6-48a0-8c15-86593cc1f30c"}},{"type":"Feature","id":122,"geometry":{"type":"Point","coordinates":[-81.5653919998732,41.4643549996632]},"properties":{"OBJECTID":122,"Id":0,"stop_id":"gtfs:02935","stop_code":" ","stop_name":"CHAGRIN BLVD & LEE RD","stop_desc":" ","zone_id":"gtfs:","stop_url":" ","loc_type":" ","parent_sta":" ","NumTrips":24,"TripsPerHr":4,"MxWtTime":17,"rte_count":1,"AvgHeadway":15,"MinHeadway":15,"MaxHeadway":15,"MetHdWyLim":1,"route_list":"14","GlobalID":"a0946681-9f4f-46f6-aeac-1d6b9cf24ef9"}},{"type":"Feature","id":123,"geometry":{"type":"Point","coordinates":[-81.5646080000925,41.4645950005472]},"properties":{"OBJECTID":123,"Id":0,"stop_id":"gtfs:02936","stop_code":" ","stop_name":"CHAGRIN BLVD & LEE RD","stop_desc":" ","zone_id":"gtfs:","stop_url":" ","loc_type":" ","parent_sta":" ","NumTrips":24,"TripsPerHr":4,"MxWtTime":16,"rte_count":1,"AvgHeadway":15,"MinHeadway":15,"MaxHeadway":15,"MetHdWyLim":1,"route_list":"14","GlobalID":"b1c0737c-9e5b-4bdf-99b9-a1b590509098"}},{"type":"Feature","id":124,"geometry":{"type":"Point","coordinates":[-81.569594000528,41.4644909999356]},"properties":{"OBJECTID":124,"Id":0,"stop_id":"gtfs:02937","stop_code":" ","stop_name":"CHAGRIN BLVD & LUDGATE RD","stop_desc":" ","zone_id":"gtfs:","stop_url":" ","loc_type":" ","parent_sta":" ","NumTrips":24,"TripsPerHr":4,"MxWtTime":16,"rte_count":1,"AvgHeadway":15,"MinHeadway":15,"MaxHeadway":15,"MetHdWyLim":1,"route_list":"14","GlobalID":"a730b028-d26c-47e5-ae54-13cc55854e68"}},{"type":"Feature","id":125,"geometry":{"type":"Point","coordinates":[-81.5476360003629,41.464481999381]},"properties":{"OBJECTID":125,"Id":0,"stop_id":"gtfs:02938","stop_code":" ","stop_name":"CHAGRIN BLVD & LYNNFIELD RD","stop_desc":" ","zone_id":"gtfs:","stop_url":" ","loc_type":" ","parent_sta":" ","NumTrips":24,"TripsPerHr":4,"MxWtTime":17,"rte_count":1,"AvgHeadway":15,"MinHeadway":15,"MaxHeadway":15,"MetHdWyLim":1,"route_list":"14","GlobalID":"2ed392e0-dc86-44d8-b740-b8b0ebbd41c1"}},{"type":"Feature","id":126,"geometry":{"type":"Point","coordinates":[-81.5466350000502,41.4646140004863]},"properties":{"OBJECTID":126,"Id":0,"stop_id":"gtfs:02939","stop_code":" ","stop_name":"CHAGRIN BLVD & LYNNFIELD RD","stop_desc":" ","zone_id":"gtfs:","stop_url":" ","loc_type":" ","parent_sta":" ","NumTrips":24,"TripsPerHr":4,"MxWtTime":16,"rte_count":1,"AvgHeadway":15,"MinHeadway":15,"MaxHeadway":15,"MetHdWyLim":1,"route_list":"14","GlobalID":"cd52057c-f2f2-4acc-b08b-774b33a56be7"}},{"type":"Feature","id":127,"geometry":{"type":"Point","coordinates":[-81.5713510007582,41.4643829997245]},"properties":{"OBJECTID":127,"Id":0,"stop_id":"gtfs:02944","stop_code":" ","stop_name":"CHAGRIN BLVD & MENLO RD","stop_desc":" ","zone_id":"gtfs:","stop_url":" ","loc_type":" ","parent_sta":" ","NumTrips":24,"TripsPerHr":4,"MxWtTime":17,"rte_count":1,"AvgHeadway":15,"MinHeadway":15,"MaxHeadway":15,"MetHdWyLim":1,"route_list":"14","GlobalID":"fa05b98d-eacc-4834-89cc-ddc20d114755"}},{"type":"Feature","id":128,"geometry":{"type":"Point","coordinates":[-81.5438309998093,41.464485999636]},"properties":{"OBJECTID":128,"Id":0,"stop_id":"gtfs:02946","stop_code":" ","stop_name":"CHAGRIN BLVD & NORWOOD RD","stop_desc":" ","zone_id":"gtfs:","stop_url":" ","loc_type":" ","parent_sta":" ","NumTrips":24,"TripsPerHr":4,"MxWtTime":17,"rte_count":1,"AvgHeadway":15,"MinHeadway":15,"MaxHeadway":15,"MetHdWyLim":1,"route_list":"14","GlobalID":"ae90a07b-ca79-461e-a78f-e2fe5bfcffdd"}},{"type":"Feature","id":129,"geometry":{"type":"Point","coordinates":[-81.5441089995874,41.4646059997741]},"properties":{"OBJECTID":129,"Id":0,"stop_id":"gtfs:02947","stop_code":" ","stop_name":"CHAGRIN BLVD & NORWOOD RD","stop_desc":" ","zone_id":"gtfs:","stop_url":" ","loc_type":" ","parent_sta":" ","NumTrips":24,"TripsPerHr":4,"MxWtTime":16,"rte_count":1,"AvgHeadway":15,"MinHeadway":15,"MaxHeadway":15,"MetHdWyLim":1,"route_list":"14","GlobalID":"116c44ee-86a8-419e-a0ce-6529aca7fc44"}},{"type":"Feature","id":130,"geometry":{"type":"Point","coordinates":[-81.6845979991922,41.5021940000281]},"properties":{"OBJECTID":130,"Id":0,"stop_id":"gtfs:02970","stop_code":" ","stop_name":"CHESTER AV & E 12TH ST","stop_desc":" ","zone_id":"gtfs:","stop_url":" ","loc_type":" ","parent_sta":" ","NumTrips":91,"TripsPerHr":15.1666666667,"MxWtTime":60,"rte_count":6,"AvgHeadway":28.3333333333,"MinHeadway":15,"MaxHeadway":50,"MetHdWyLim":2,"route_list":"11, 14, 15, 251, 55, 77, 90","GlobalID":"f7ef5f28-8b53-478b-9c01-f2be2bfd0581"}},{"type":"Feature","id":131,"geometry":{"type":"Point","coordinates":[-81.6805730002701,41.5031450000388]},"properties":{"OBJECTID":131,"Id":0,"stop_id":"gtfs:02973","stop_code":" ","stop_name":"CHESTER AV & E 17TH ST","stop_desc":" ","zone_id":"gtfs:","stop_url":" ","loc_type":" ","parent_sta":" ","NumTrips":92,"TripsPerHr":15.3333333333,"MxWtTime":61,"rte_count":6,"AvgHeadway":28.3333333333,"MinHeadway":15,"MaxHeadway":50,"MetHdWyLim":2,"route_list":"11, 14, 15, 251, 55, 77, 90","GlobalID":"5941b868-56cc-464e-b995-f41828e24d0c"}},{"type":"Feature","id":132,"geometry":{"type":"Point","coordinates":[-81.6789750006193,41.5033009998905]},"properties":{"OBJECTID":132,"Id":0,"stop_id":"gtfs:02976","stop_code":" ","stop_name":"CHESTER AV & E 18TH ST","stop_desc":" ","zone_id":"gtfs:","stop_url":" ","loc_type":" ","parent_sta":" ","NumTrips":92,"TripsPerHr":15.3333333333,"MxWtTime":61,"rte_count":6,"AvgHeadway":28.3333333333,"MinHeadway":15,"MaxHeadway":50,"MetHdWyLim":2,"route_list":"11, 14, 15, 251, 55, 77, 90","GlobalID":"d8ca5fe8-93dc-4776-a886-28ee89d82238"}},{"type":"Feature","id":133,"geometry":{"type":"Point","coordinates":[-81.6737330001894,41.4953120005338]},"properties":{"OBJECTID":133,"Id":0,"stop_id":"gtfs:03193","stop_code":" ","stop_name":"COMMUNITY COLLEGE AV & E 22ND ST","stop_desc":" ","zone_id":"gtfs:","stop_url":" ","loc_type":" ","parent_sta":" ","NumTrips":79,"TripsPerHr":13.1666666667,"MxWtTime":61,"rte_count":5,"AvgHeadway":28,"MinHeadway":15,"MaxHeadway":50,"MetHdWyLim":2,"route_list":"11, 14, 15, 77, 90","GlobalID":"ea69ea26-5020-4d60-a40b-cc8ace593a2c"}},{"type":"Feature","id":134,"geometry":{"type":"Point","coordinates":[-81.6741050008068,41.4955859994887]},"properties":{"OBJECTID":134,"Id":0,"stop_id":"gtfs:03194","stop_code":" ","stop_name":"COMMUNITY COLLEGE AV & E 22ND ST","stop_desc":" ","zone_id":"gtfs:","stop_url":" ","loc_type":" ","parent_sta":" ","NumTrips":79,"TripsPerHr":13.1666666667,"MxWtTime":62,"rte_count":5,"AvgHeadway":29,"MinHeadway":15,"MaxHeadway":55,"MetHdWyLim":2,"route_list":"11, 14, 15, 77, 90","GlobalID":"bcff4d13-48c4-4678-ba0b-862b69fa1c5e"}},{"type":"Feature","id":135,"geometry":{"type":"Point","coordinates":[-81.6721219999078,41.495081999375]},"properties":{"OBJECTID":135,"Id":0,"stop_id":"gtfs:03195","stop_code":" ","stop_name":"COMMUNITY COLLEGE AV & E 24TH ST","stop_desc":" ","zone_id":"gtfs:","stop_url":" ","loc_type":" ","parent_sta":" ","NumTrips":79,"TripsPerHr":13.1666666667,"MxWtTime":61,"rte_count":5,"AvgHeadway":28,"MinHeadway":15,"MaxHeadway":50,"MetHdWyLim":2,"route_list":"11, 14, 15, 77, 90","GlobalID":"f04962ee-fb87-434c-8e7f-4cc21150036e"}},{"type":"Feature","id":136,"geometry":{"type":"Point","coordinates":[-81.671399999432,41.4951130002296]},"properties":{"OBJECTID":136,"Id":0,"stop_id":"gtfs:03196","stop_code":" ","stop_name":"COMMUNITY COLLEGE AV & E 24TH ST","stop_desc":" ","zone_id":"gtfs:","stop_url":" ","loc_type":" ","parent_sta":" ","NumTrips":79,"TripsPerHr":13.1666666667,"MxWtTime":62,"rte_count":5,"AvgHeadway":29,"MinHeadway":15,"MaxHeadway":55,"MetHdWyLim":2,"route_list":"11, 14, 15, 77, 90","GlobalID":"9fbff73d-0d3c-4caf-8be2-745021c70312"}},{"type":"Feature","id":137,"geometry":{"type":"Point","coordinates":[-81.6682270002886,41.4944279998943]},"properties":{"OBJECTID":137,"Id":0,"stop_id":"gtfs:03197","stop_code":" ","stop_name":"COMMUNITY COLLEGE AV & E 30TH ST","stop_desc":" ","zone_id":"gtfs:","stop_url":" ","loc_type":" ","parent_sta":" ","NumTrips":79,"TripsPerHr":13.1666666667,"MxWtTime":61,"rte_count":5,"AvgHeadway":28,"MinHeadway":15,"MaxHeadway":50,"MetHdWyLim":2,"route_list":"11, 14, 15, 77, 90","GlobalID":"3827c132-32cc-4519-b808-43868b17fbfe"}},{"type":"Feature","id":138,"geometry":{"type":"Point","coordinates":[-81.6676789996148,41.4945009996156]},"properties":{"OBJECTID":138,"Id":0,"stop_id":"gtfs:03199","stop_code":" ","stop_name":"COMMUNITY COLLEGE AV & E 30TH ST","stop_desc":" ","zone_id":"gtfs:","stop_url":" ","loc_type":" ","parent_sta":" ","NumTrips":79,"TripsPerHr":13.1666666667,"MxWtTime":62,"rte_count":5,"AvgHeadway":29,"MinHeadway":15,"MaxHeadway":55,"MetHdWyLim":2,"route_list":"11, 14, 15, 77, 90","GlobalID":"92e3baaa-234f-466a-ac33-b8fc2cd8a19c"}},{"type":"Feature","id":139,"geometry":{"type":"Point","coordinates":[-81.6023040002314,41.4555689999984]},"properties":{"OBJECTID":139,"Id":0,"stop_id":"gtfs:03213","stop_code":" ","stop_name":"CORLETT AV & MARTIN LUTHER KING DR","stop_desc":" ","zone_id":"gtfs:","stop_url":" ","loc_type":" ","parent_sta":" ","NumTrips":24,"TripsPerHr":4,"MxWtTime":17,"rte_count":1,"AvgHeadway":15,"MinHeadway":15,"MaxHeadway":15,"MetHdWyLim":1,"route_list":"15","GlobalID":"42fd388e-f50d-4ea7-a362-d1fbda0b3200"}},{"type":"Feature","id":140,"geometry":{"type":"Point","coordinates":[-81.6023399996077,41.4556970002151]},"properties":{"OBJECTID":140,"Id":0,"stop_id":"gtfs:03214","stop_code":" ","stop_name":"CORLETT AV & MARTIN LUTHER KING DR","stop_desc":" ","zone_id":"gtfs:","stop_url":" ","loc_type":" ","parent_sta":" ","NumTrips":24,"TripsPerHr":4,"MxWtTime":16,"rte_count":1,"AvgHeadway":15,"MinHeadway":15,"MaxHeadway":15,"MetHdWyLim":1,"route_list":"15","GlobalID":"5bd5706f-1e49-410d-a33e-49f915be2efd"}},{"type":"Feature","id":141,"geometry":{"type":"Point","coordinates":[-81.5994300006647,41.4555940000901]},"properties":{"OBJECTID":141,"Id":0,"stop_id":"gtfs:03215","stop_code":" ","stop_name":"CORLETT AV & E 120TH ST","stop_desc":" ","zone_id":"gtfs:","stop_url":" ","loc_type":" ","parent_sta":" ","NumTrips":24,"TripsPerHr":4,"MxWtTime":17,"rte_count":1,"AvgHeadway":15,"MinHeadway":15,"MaxHeadway":15,"MetHdWyLim":1,"route_list":"15","GlobalID":"fc5b8a18-dd6f-490e-a9df-116a086f5be6"}},{"type":"Feature","id":142,"geometry":{"type":"Point","coordinates":[-81.5991059992603,41.4557099994866]},"properties":{"OBJECTID":142,"Id":0,"stop_id":"gtfs:03216","stop_code":" ","stop_name":"CORLETT AV & E 120TH ST","stop_desc":" ","zone_id":"gtfs:","stop_url":" ","loc_type":" ","parent_sta":" ","NumTrips":24,"TripsPerHr":4,"MxWtTime":16,"rte_count":1,"AvgHeadway":15,"MinHeadway":15,"MaxHeadway":15,"MetHdWyLim":1,"route_list":"15","GlobalID":"c4017889-034b-4fc2-b23d-b3aaa5cbd0e6"}},{"type":"Feature","id":143,"geometry":{"type":"Point","coordinates":[-81.5965570003634,41.4556220001525]},"properties":{"OBJECTID":143,"Id":0,"stop_id":"gtfs:03217","stop_code":" ","stop_name":"CORLETT AV & E 124TH ST","stop_desc":" ","zone_id":"gtfs:","stop_url":" ","loc_type":" ","parent_sta":" ","NumTrips":24,"TripsPerHr":4,"MxWtTime":17,"rte_count":1,"AvgHeadway":15,"MinHeadway":15,"MaxHeadway":15,"MetHdWyLim":1,"route_list":"15","GlobalID":"8f7893b5-bf86-4960-895e-e8cfe390411e"}},{"type":"Feature","id":144,"geometry":{"type":"Point","coordinates":[-81.5965869997414,41.4557210007154]},"properties":{"OBJECTID":144,"Id":0,"stop_id":"gtfs:03218","stop_code":" ","stop_name":"CORLETT AV & E 124TH ST","stop_desc":" ","zone_id":"gtfs:","stop_url":" ","loc_type":" ","parent_sta":" ","NumTrips":24,"TripsPerHr":4,"MxWtTime":16,"rte_count":1,"AvgHeadway":15,"MinHeadway":15,"MaxHeadway":15,"MetHdWyLim":1,"route_list":"15","GlobalID":"bf7603d5-1578-471b-a2b3-0c0257fdfa9b"}},{"type":"Feature","id":145,"geometry":{"type":"Point","coordinates":[-81.594485999995,41.4556330001035]},"properties":{"OBJECTID":145,"Id":0,"stop_id":"gtfs:03219","stop_code":" ","stop_name":"CORLETT AV & E 127TH ST","stop_desc":" ","zone_id":"gtfs:","stop_url":" ","loc_type":" ","parent_sta":" ","NumTrips":24,"TripsPerHr":4,"MxWtTime":17,"rte_count":1,"AvgHeadway":15,"MinHeadway":15,"MaxHeadway":15,"MetHdWyLim":1,"route_list":"15","GlobalID":"85a206c5-8704-4324-809c-9a931077c496"}},{"type":"Feature","id":146,"geometry":{"type":"Point","coordinates":[-81.5941340000449,41.4557300001694]},"properties":{"OBJECTID":146,"Id":0,"stop_id":"gtfs:03220","stop_code":" ","stop_name":"CORLETT AV & E 127TH ST","stop_desc":" ","zone_id":"gtfs:","stop_url":" ","loc_type":" ","parent_sta":" ","NumTrips":24,"TripsPerHr":4,"MxWtTime":16,"rte_count":1,"AvgHeadway":15,"MinHeadway":15,"MaxHeadway":15,"MetHdWyLim":1,"route_list":"15","GlobalID":"e7cc9734-aeb5-46d3-87ef-095104e3077d"}},{"type":"Feature","id":147,"geometry":{"type":"Point","coordinates":[-81.7777480000433,41.4844829998263]},"properties":{"OBJECTID":147,"Id":0,"stop_id":"gtfs:03341","stop_code":" ","stop_name":"DETROIT AV & ALMEDA AV","stop_desc":" ","zone_id":"gtfs:","stop_url":" ","loc_type":" ","parent_sta":" ","NumTrips":24,"TripsPerHr":4,"MxWtTime":15,"rte_count":1,"AvgHeadway":15,"MinHeadway":15,"MaxHeadway":15,"MetHdWyLim":1,"route_list":"26","GlobalID":"e4c85dfb-be10-4d43-b6fd-90f024479108"}},{"type":"Feature","id":148,"geometry":{"type":"Point","coordinates":[-81.8053179995119,41.4851329992868]},"properties":{"OBJECTID":148,"Id":0,"stop_id":"gtfs:03344","stop_code":" ","stop_name":"DETROIT AV & ARTHUR AV","stop_desc":" ","zone_id":"gtfs:","stop_url":" ","loc_type":" ","parent_sta":" ","NumTrips":24,"TripsPerHr":4,"MxWtTime":16,"rte_count":1,"AvgHeadway":15,"MinHeadway":15,"MaxHeadway":15,"MetHdWyLim":1,"route_list":"26","GlobalID":"8ba38f5f-4ae8-4b0b-a127-90da8437bbf4"}},{"type":"Feature","id":149,"geometry":{"type":"Point","coordinates":[-81.7966430001672,41.4852390000714]},"properties":{"OBJECTID":149,"Id":0,"stop_id":"gtfs:03349","stop_code":" ","stop_name":"DETROIT AV & BELLE AV","stop_desc":" ","zone_id":"gtfs:","stop_url":" ","loc_type":" ","parent_sta":" ","NumTrips":24,"TripsPerHr":4,"MxWtTime":16,"rte_count":1,"AvgHeadway":15,"MinHeadway":15,"MaxHeadway":15,"MetHdWyLim":1,"route_list":"26","GlobalID":"5c537462-bb82-4ab0-b7a4-348833f14787"}},{"type":"Feature","id":150,"geometry":{"type":"Point","coordinates":[-81.79743199981,41.4853859998236]},"properties":{"OBJECTID":150,"Id":0,"stop_id":"gtfs:03350","stop_code":" ","stop_name":"DETROIT AV & BELLE AV","stop_desc":" ","zone_id":"gtfs:","stop_url":" ","loc_type":" ","parent_sta":" ","NumTrips":24,"TripsPerHr":4,"MxWtTime":16,"rte_count":1,"AvgHeadway":15,"MinHeadway":15,"MaxHeadway":15,"MetHdWyLim":1,"route_list":"26","GlobalID":"72200dfa-9a80-47d1-b0a8-b0f61ce48231"}},{"type":"Feature","id":151,"geometry":{"type":"Point","coordinates":[-81.7930430002089,41.485406999705]},"properties":{"OBJECTID":151,"Id":0,"stop_id":"gtfs:03351","stop_code":" ","stop_name":"DETROIT AV & BLOSSOM PARK AV","stop_desc":" ","zone_id":"gtfs:","stop_url":" ","loc_type":" ","parent_sta":" ","NumTrips":24,"TripsPerHr":4,"MxWtTime":16,"rte_count":1,"AvgHeadway":15,"MinHeadway":15,"MaxHeadway":15,"MetHdWyLim":1,"route_list":"26","GlobalID":"599b2784-e987-49de-863d-549af1069906"}},{"type":"Feature","id":152,"geometry":{"type":"Point","coordinates":[-81.7896759994112,41.4854469997428]},"properties":{"OBJECTID":152,"Id":0,"stop_id":"gtfs:03355","stop_code":" ","stop_name":"DETROIT AV & BUNTS RD","stop_desc":" ","zone_id":"gtfs:","stop_url":" ","loc_type":" ","parent_sta":" ","NumTrips":25,"TripsPerHr":4.16666666667,"MxWtTime":16,"rte_count":1,"AvgHeadway":15,"MinHeadway":15,"MaxHeadway":15,"MetHdWyLim":1,"route_list":"26","GlobalID":"4376637f-4e25-49d0-ade2-f5f475450040"}},{"type":"Feature","id":153,"geometry":{"type":"Point","coordinates":[-81.7891539997386,41.4855390006038]},"properties":{"OBJECTID":153,"Id":0,"stop_id":"gtfs:03356","stop_code":" ","stop_name":"DETROIT AV & BUNTS RD","stop_desc":" ","zone_id":"gtfs:","stop_url":" ","loc_type":" ","parent_sta":" ","NumTrips":24,"TripsPerHr":4,"MxWtTime":16,"rte_count":1,"AvgHeadway":15,"MinHeadway":15,"MaxHeadway":15,"MetHdWyLim":1,"route_list":"26","GlobalID":"3d9f55b9-317f-47cf-85aa-0de826b63f5d"}},{"type":"Feature","id":154,"geometry":{"type":"Point","coordinates":[-81.7818240005148,41.484754999988]},"properties":{"OBJECTID":154,"Id":0,"stop_id":"gtfs:03364","stop_code":" ","stop_name":"DETROIT AV & CLARENCE AV","stop_desc":" ","zone_id":"gtfs:","stop_url":" ","loc_type":" ","parent_sta":" ","NumTrips":25,"TripsPerHr":4.16666666667,"MxWtTime":16,"rte_count":1,"AvgHeadway":15,"MinHeadway":15,"MaxHeadway":15,"MetHdWyLim":1,"route_list":"26","GlobalID":"06dd4aa7-fc23-49af-b741-d4689d9dc479"}},{"type":"Feature","id":155,"geometry":{"type":"Point","coordinates":[-81.7705400009547,41.483723000414]},"properties":{"OBJECTID":155,"Id":0,"stop_id":"gtfs:03369","stop_code":" ","stop_name":"DETROIT AV & COUTANT AV","stop_desc":" ","zone_id":"gtfs:","stop_url":" ","loc_type":" ","parent_sta":" ","NumTrips":24,"TripsPerHr":4,"MxWtTime":16,"rte_count":1,"AvgHeadway":15,"MinHeadway":15,"MaxHeadway":15,"MetHdWyLim":1,"route_list":"26","GlobalID":"efff765b-5185-4894-930e-ab941b1abb4b"}},{"type":"Feature","id":156,"geometry":{"type":"Point","coordinates":[-81.8097029997875,41.4852450006613]},"properties":{"OBJECTID":156,"Id":0,"stop_id":"gtfs:03371","stop_code":" ","stop_name":"DETROIT AV & CRANFORD AV","stop_desc":" ","zone_id":"gtfs:","stop_url":" ","loc_type":" ","parent_sta":" ","NumTrips":24,"TripsPerHr":4,"MxWtTime":16,"rte_count":1,"AvgHeadway":15,"MinHeadway":15,"MaxHeadway":15,"MetHdWyLim":1,"route_list":"26","GlobalID":"737a90aa-0f65-4c2b-a81c-7f147b3c788d"}},{"type":"Feature","id":157,"geometry":{"type":"Point","coordinates":[-81.7724839996572,41.4839699999618]},"properties":{"OBJECTID":157,"Id":0,"stop_id":"gtfs:03385","stop_code":" ","stop_name":"DETROIT AV & FRY AV","stop_desc":" ","zone_id":"gtfs:","stop_url":" ","loc_type":" ","parent_sta":" ","NumTrips":24,"TripsPerHr":4,"MxWtTime":15,"rte_count":1,"AvgHeadway":15,"MinHeadway":15,"MaxHeadway":15,"MetHdWyLim":1,"route_list":"26","GlobalID":"69f372e1-d1b3-4667-9841-b836c12b1960"}},{"type":"Feature","id":158,"geometry":{"type":"Point","coordinates":[-81.779924999449,41.4846849996179]},"properties":{"OBJECTID":158,"Id":0,"stop_id":"gtfs:03388","stop_code":" ","stop_name":"DETROIT AV & GRACE AV","stop_desc":" ","zone_id":"gtfs:","stop_url":" ","loc_type":" ","parent_sta":" ","NumTrips":24,"TripsPerHr":4,"MxWtTime":15,"rte_count":1,"AvgHeadway":15,"MinHeadway":15,"MaxHeadway":15,"MetHdWyLim":1,"route_list":"26","GlobalID":"e8607ed4-c72b-4be8-8e42-08a22f2644f8"}},{"type":"Feature","id":159,"geometry":{"type":"Point","coordinates":[-81.7362460001917,41.4825459996087]},"properties":{"OBJECTID":159,"Id":0,"stop_id":"gtfs:03395","stop_code":" ","stop_name":"DETROIT AV & LAKE AV","stop_desc":" ","zone_id":"gtfs:","stop_url":" ","loc_type":" ","parent_sta":" ","NumTrips":24,"TripsPerHr":4,"MxWtTime":15,"rte_count":1,"AvgHeadway":15,"MinHeadway":15,"MaxHeadway":15,"MetHdWyLim":1,"route_list":"26","GlobalID":"8ae2aadc-4d61-4a11-957c-b8744a58c640"}},{"type":"Feature","id":160,"geometry":{"type":"Point","coordinates":[-81.8147629996866,41.4852980001902]},"properties":{"OBJECTID":160,"Id":0,"stop_id":"gtfs:03399","stop_code":" ","stop_name":"DETROIT AV & EDWARDS AV","stop_desc":" ","zone_id":"gtfs:","stop_url":" ","loc_type":" ","parent_sta":" ","NumTrips":24,"TripsPerHr":4,"MxWtTime":16,"rte_count":1,"AvgHeadway":15,"MinHeadway":15,"MaxHeadway":15,"MetHdWyLim":1,"route_list":"26","GlobalID":"46cc7723-8521-491c-a37a-7e18b44f7fe4"}},{"type":"Feature","id":161,"geometry":{"type":"Point","coordinates":[-81.7947399998875,41.4853240007154]},"properties":{"OBJECTID":161,"Id":0,"stop_id":"gtfs:03402","stop_code":" ","stop_name":"DETROIT AV & LINCOLN AV","stop_desc":" ","zone_id":"gtfs:","stop_url":" ","loc_type":" ","parent_sta":" ","NumTrips":24,"TripsPerHr":4,"MxWtTime":16,"rte_count":1,"AvgHeadway":15,"MinHeadway":15,"MaxHeadway":15,"MetHdWyLim":1,"route_list":"26","GlobalID":"861dc3b9-ffa7-4db9-a08b-b14eceaa3012"}},{"type":"Feature","id":162,"geometry":{"type":"Point","coordinates":[-81.7836079996984,41.4850220002503]},"properties":{"OBJECTID":162,"Id":0,"stop_id":"gtfs:03412","stop_code":" ","stop_name":"DETROIT AV & NICHOLSON AV","stop_desc":" ","zone_id":"gtfs:","stop_url":" ","loc_type":" ","parent_sta":" ","NumTrips":24,"TripsPerHr":4,"MxWtTime":15,"rte_count":1,"AvgHeadway":15,"MinHeadway":15,"MaxHeadway":15,"MetHdWyLim":1,"route_list":"26","GlobalID":"364e7df2-f37d-4008-a283-9a0635126d68"}},{"type":"Feature","id":163,"geometry":{"type":"Point","coordinates":[-81.7935019998992,41.4855100002584]},"properties":{"OBJECTID":163,"Id":0,"stop_id":"gtfs:03414","stop_code":" ","stop_name":"DETROIT AV & OLIVEWOOD AV","stop_desc":" ","zone_id":"gtfs:","stop_url":" ","loc_type":" ","parent_sta":" ","NumTrips":24,"TripsPerHr":4,"MxWtTime":16,"rte_count":1,"AvgHeadway":15,"MinHeadway":15,"MaxHeadway":15,"MetHdWyLim":1,"route_list":"26","GlobalID":"e0f7d7fc-3db4-4725-9f55-55a1712d198a"}},{"type":"Feature","id":164,"geometry":{"type":"Point","coordinates":[-81.8089919998603,41.4851089998642]},"properties":{"OBJECTID":164,"Id":0,"stop_id":"gtfs:03415","stop_code":" ","stop_name":"DETROIT AV & ORCHARD GROVE AV","stop_desc":" ","zone_id":"gtfs:","stop_url":" ","loc_type":" ","parent_sta":" ","NumTrips":24,"TripsPerHr":4,"MxWtTime":16,"rte_count":1,"AvgHeadway":15,"MinHeadway":15,"MaxHeadway":15,"MetHdWyLim":1,"route_list":"26","GlobalID":"b3f4703a-f708-472b-8054-33c8eaefbfcc"}},{"type":"Feature","id":165,"geometry":{"type":"Point","coordinates":[-81.8266640007572,41.4824150005831]},"properties":{"OBJECTID":165,"Id":0,"stop_id":"gtfs:03425","stop_code":" ","stop_name":"DETROIT AV & RIVERSIDE DR","stop_desc":" ","zone_id":"gtfs:","stop_url":" ","loc_type":" ","parent_sta":" ","NumTrips":24,"TripsPerHr":4,"MxWtTime":16,"rte_count":1,"AvgHeadway":15,"MinHeadway":15,"MaxHeadway":15,"MetHdWyLim":1,"route_list":"26","GlobalID":"78647c73-d505-4402-8c10-b751cf8056b6"}},{"type":"Feature","id":166,"geometry":{"type":"Point","coordinates":[-81.8177569994257,41.4851290007259]},"properties":{"OBJECTID":166,"Id":0,"stop_id":"gtfs:03426","stop_code":" ","stop_name":"DETROIT AV & ROYCROFT AV","stop_desc":" ","zone_id":"gtfs:","stop_url":" ","loc_type":" ","parent_sta":" ","NumTrips":24,"TripsPerHr":4,"MxWtTime":16,"rte_count":1,"AvgHeadway":15,"MinHeadway":15,"MaxHeadway":15,"MetHdWyLim":1,"route_list":"26","GlobalID":"ff0e5087-ca65-4614-ba23-11ae702cef13"}},{"type":"Feature","id":167,"geometry":{"type":"Point","coordinates":[-81.7631550003592,41.4821379996894]},"properties":{"OBJECTID":167,"Id":0,"stop_id":"gtfs:03432","stop_code":" ","stop_name":"DETROIT AV & W 110TH ST","stop_desc":" ","zone_id":"gtfs:","stop_url":" ","loc_type":" ","parent_sta":" ","NumTrips":24,"TripsPerHr":4,"MxWtTime":16,"rte_count":1,"AvgHeadway":15,"MinHeadway":15,"MaxHeadway":15,"MetHdWyLim":1,"route_list":"26","GlobalID":"23f718d2-3ab3-4da0-af4f-b1be96ca14ed"}},{"type":"Feature","id":168,"geometry":{"type":"Point","coordinates":[-81.7624959993941,41.4820660005661]},"properties":{"OBJECTID":168,"Id":0,"stop_id":"gtfs:03433","stop_code":" ","stop_name":"DETROIT AV & W 110TH ST","stop_desc":" ","zone_id":"gtfs:","stop_url":" ","loc_type":" ","parent_sta":" ","NumTrips":24,"TripsPerHr":4,"MxWtTime":15,"rte_count":1,"AvgHeadway":15,"MinHeadway":15,"MaxHeadway":15,"MetHdWyLim":1,"route_list":"26","GlobalID":"299376bb-aba8-4e75-b8e9-6cddfe8cfdb7"}},{"type":"Feature","id":169,"geometry":{"type":"Point","coordinates":[-81.7659489999477,41.4828519996017]},"properties":{"OBJECTID":169,"Id":0,"stop_id":"gtfs:03434","stop_code":" ","stop_name":"DETROIT AV & W 114TH ST","stop_desc":" ","zone_id":"gtfs:","stop_url":" ","loc_type":" ","parent_sta":" ","NumTrips":24,"TripsPerHr":4,"MxWtTime":16,"rte_count":1,"AvgHeadway":15,"MinHeadway":15,"MaxHeadway":15,"MetHdWyLim":1,"route_list":"26","GlobalID":"27784552-ab44-4f42-a605-b81fa78db554"}},{"type":"Feature","id":170,"geometry":{"type":"Point","coordinates":[-81.7665249995386,41.4831059998433]},"properties":{"OBJECTID":170,"Id":0,"stop_id":"gtfs:03435","stop_code":" ","stop_name":"DETROIT AV & W 114TH ST","stop_desc":" ","zone_id":"gtfs:","stop_url":" ","loc_type":" ","parent_sta":" ","NumTrips":24,"TripsPerHr":4,"MxWtTime":15,"rte_count":1,"AvgHeadway":15,"MinHeadway":15,"MaxHeadway":15,"MetHdWyLim":1,"route_list":"26","GlobalID":"054b80e7-af04-4765-8f7d-bb14b60494f4"}},{"type":"Feature","id":171,"geometry":{"type":"Point","coordinates":[-81.7683490002228,41.4834670004007]},"properties":{"OBJECTID":171,"Id":0,"stop_id":"gtfs:03436","stop_code":" ","stop_name":"DETROIT AV & W 117TH ST","stop_desc":" ","zone_id":"gtfs:","stop_url":" ","loc_type":" ","parent_sta":" ","NumTrips":24,"TripsPerHr":4,"MxWtTime":16,"rte_count":1,"AvgHeadway":15,"MinHeadway":15,"MaxHeadway":15,"MetHdWyLim":1,"route_list":"26","GlobalID":"71a25f12-30e1-4d84-b1dd-4fc560c69214"}},{"type":"Feature","id":172,"geometry":{"type":"Point","coordinates":[-81.7682460003444,41.4835229997301]},"properties":{"OBJECTID":172,"Id":0,"stop_id":"gtfs:03437","stop_code":" ","stop_name":"DETROIT AV & W 117TH ST","stop_desc":" ","zone_id":"gtfs:","stop_url":" ","loc_type":" ","parent_sta":" ","NumTrips":24,"TripsPerHr":4,"MxWtTime":16,"rte_count":1,"AvgHeadway":15,"MinHeadway":15,"MaxHeadway":15,"MetHdWyLim":1,"route_list":"26","GlobalID":"15ab07a7-76db-4402-9b59-383d67a04c67"}},{"type":"Feature","id":173,"geometry":{"type":"Point","coordinates":[-81.7076089993679,41.4912339999775]},"properties":{"OBJECTID":173,"Id":0,"stop_id":"gtfs:03438","stop_code":" ","stop_name":"DETROIT AV & W 25TH ST","stop_desc":" ","zone_id":"gtfs:","stop_url":" ","loc_type":" ","parent_sta":" ","NumTrips":31,"TripsPerHr":5.16666666667,"MxWtTime":60,"rte_count":2,"AvgHeadway":35,"MinHeadway":15,"MaxHeadway":55,"MetHdWyLim":1,"route_list":"26, 71","GlobalID":"cadf7b54-8f82-49ae-99f3-2c5b63aa8b8a"}},{"type":"Feature","id":174,"geometry":{"type":"Point","coordinates":[-81.7078910002911,41.491244999993]},"properties":{"OBJECTID":174,"Id":0,"stop_id":"gtfs:03439","stop_code":" ","stop_name":"DETROIT AV & W 25TH ST","stop_desc":" ","zone_id":"gtfs:","stop_url":" ","loc_type":" ","parent_sta":" ","NumTrips":31,"TripsPerHr":5.16666666667,"MxWtTime":60,"rte_count":2,"AvgHeadway":35,"MinHeadway":15,"MaxHeadway":55,"MetHdWyLim":1,"route_list":"26, 71","GlobalID":"726ebec1-75be-453c-8111-abb2510c0469"}},{"type":"Feature","id":175,"geometry":{"type":"Point","coordinates":[-81.7094459993302,41.490418999604]},"properties":{"OBJECTID":175,"Id":0,"stop_id":"gtfs:03440","stop_code":" ","stop_name":"DETROIT AV & W 28TH ST","stop_desc":" ","zone_id":"gtfs:","stop_url":" ","loc_type":" ","parent_sta":" ","NumTrips":31,"TripsPerHr":5.16666666667,"MxWtTime":60,"rte_count":2,"AvgHeadway":35,"MinHeadway":15,"MaxHeadway":55,"MetHdWyLim":1,"route_list":"26, 71","GlobalID":"cd5c5236-4643-40b8-a076-26cf036765e4"}},{"type":"Feature","id":176,"geometry":{"type":"Point","coordinates":[-81.713142000637,41.4888709997992]},"properties":{"OBJECTID":176,"Id":0,"stop_id":"gtfs:03444","stop_code":" ","stop_name":"DETROIT AV & W 32ND ST","stop_desc":" ","zone_id":"gtfs:","stop_url":" ","loc_type":" ","parent_sta":" ","NumTrips":32,"TripsPerHr":5.33333333333,"MxWtTime":60,"rte_count":2,"AvgHeadway":32.5,"MinHeadway":15,"MaxHeadway":50,"MetHdWyLim":1,"route_list":"26, 71","GlobalID":"ba538a4b-d275-4e3a-83d0-5e87dfe7e62a"}},{"type":"Feature","id":177,"geometry":{"type":"Point","coordinates":[-81.7133960004645,41.4888969998065]},"properties":{"OBJECTID":177,"Id":0,"stop_id":"gtfs:03445","stop_code":" ","stop_name":"DETROIT AV & W 32ND ST","stop_desc":" ","zone_id":"gtfs:","stop_url":" ","loc_type":" ","parent_sta":" ","NumTrips":31,"TripsPerHr":5.16666666667,"MxWtTime":60,"rte_count":2,"AvgHeadway":35,"MinHeadway":15,"MaxHeadway":55,"MetHdWyLim":1,"route_list":"26, 71","GlobalID":"4108da45-4ceb-4ac3-ac62-7b222cb69aa1"}},{"type":"Feature","id":178,"geometry":{"type":"Point","coordinates":[-81.7148520000934,41.4882870004952]},"properties":{"OBJECTID":178,"Id":0,"stop_id":"gtfs:03447","stop_code":" ","stop_name":"DETROIT AV & W 38TH ST","stop_desc":" ","zone_id":"gtfs:","stop_url":" ","loc_type":" ","parent_sta":" ","NumTrips":31,"TripsPerHr":5.16666666667,"MxWtTime":60,"rte_count":2,"AvgHeadway":35,"MinHeadway":15,"MaxHeadway":55,"MetHdWyLim":1,"route_list":"26, 71","GlobalID":"141b237d-2892-4f6b-a816-606ba0d60978"}},{"type":"Feature","id":179,"geometry":{"type":"Point","coordinates":[-81.7181219995718,41.4872740002066]},"properties":{"OBJECTID":179,"Id":0,"stop_id":"gtfs:03448","stop_code":" ","stop_name":"DETROIT AV & W 45TH ST","stop_desc":" ","zone_id":"gtfs:","stop_url":" ","loc_type":" ","parent_sta":" ","NumTrips":31,"TripsPerHr":5.16666666667,"MxWtTime":60,"rte_count":2,"AvgHeadway":35,"MinHeadway":15,"MaxHeadway":55,"MetHdWyLim":1,"route_list":"26, 71","GlobalID":"f1c57a52-1383-4c63-9904-8bd70e139d4d"}},{"type":"Feature","id":180,"geometry":{"type":"Point","coordinates":[-81.7180949996064,41.4871429993037]},"properties":{"OBJECTID":180,"Id":0,"stop_id":"gtfs:03449","stop_code":" ","stop_name":"DETROIT AV & W 45TH ST","stop_desc":" ","zone_id":"gtfs:","stop_url":" ","loc_type":" ","parent_sta":" ","NumTrips":31,"TripsPerHr":5.16666666667,"MxWtTime":60,"rte_count":2,"AvgHeadway":32.5,"MinHeadway":15,"MaxHeadway":50,"MetHdWyLim":1,"route_list":"26, 71","GlobalID":"3844e98a-ced2-47a5-a060-3dec3e8ba282"}},{"type":"Feature","id":181,"geometry":{"type":"Point","coordinates":[-81.7236300005309,41.4858839996746]},"properties":{"OBJECTID":181,"Id":0,"stop_id":"gtfs:03452","stop_code":" ","stop_name":"DETROIT AV & W 54TH ST","stop_desc":" ","zone_id":"gtfs:","stop_url":" ","loc_type":" ","parent_sta":" ","NumTrips":31,"TripsPerHr":5.16666666667,"MxWtTime":60,"rte_count":2,"AvgHeadway":35,"MinHeadway":15,"MaxHeadway":55,"MetHdWyLim":1,"route_list":"26, 71","GlobalID":"898a7cec-1639-451c-a010-607507f55412"}},{"type":"Feature","id":182,"geometry":{"type":"Point","coordinates":[-81.7261040001282,41.4850900003043]},"properties":{"OBJECTID":182,"Id":0,"stop_id":"gtfs:03453","stop_code":" ","stop_name":"DETROIT AV & W 58TH ST","stop_desc":" ","zone_id":"gtfs:","stop_url":" ","loc_type":" ","parent_sta":" ","NumTrips":31,"TripsPerHr":5.16666666667,"MxWtTime":60,"rte_count":2,"AvgHeadway":32.5,"MinHeadway":15,"MaxHeadway":50,"MetHdWyLim":1,"route_list":"26, 71","GlobalID":"2a68c5e3-37ec-411c-84d3-c2f10efc6722"}},{"type":"Feature","id":183,"geometry":{"type":"Point","coordinates":[-81.7258840000406,41.4852290002395]},"properties":{"OBJECTID":183,"Id":0,"stop_id":"gtfs:03454","stop_code":" ","stop_name":"DETROIT AV & W 58TH ST","stop_desc":" ","zone_id":"gtfs:","stop_url":" ","loc_type":" ","parent_sta":" ","NumTrips":31,"TripsPerHr":5.16666666667,"MxWtTime":60,"rte_count":2,"AvgHeadway":35,"MinHeadway":15,"MaxHeadway":55,"MetHdWyLim":1,"route_list":"26, 71","GlobalID":"bf37a786-68ff-4164-bbb4-df85ca73de79"}},{"type":"Feature","id":184,"geometry":{"type":"Point","coordinates":[-81.7282720000346,41.4845080000868]},"properties":{"OBJECTID":184,"Id":0,"stop_id":"gtfs:03455","stop_code":" ","stop_name":"DETROIT AV & W 61ST ST","stop_desc":" ","zone_id":"gtfs:","stop_url":" ","loc_type":" ","parent_sta":" ","NumTrips":32,"TripsPerHr":5.33333333333,"MxWtTime":60,"rte_count":2,"AvgHeadway":32.5,"MinHeadway":15,"MaxHeadway":50,"MetHdWyLim":1,"route_list":"26, 71","GlobalID":"62bf8208-ceda-4e63-b266-ee84391fefcc"}},{"type":"Feature","id":185,"geometry":{"type":"Point","coordinates":[-81.7282070000114,41.4846679996417]},"properties":{"OBJECTID":185,"Id":0,"stop_id":"gtfs:03456","stop_code":" ","stop_name":"DETROIT AV & W 61ST ST","stop_desc":" ","zone_id":"gtfs:","stop_url":" ","loc_type":" ","parent_sta":" ","NumTrips":31,"TripsPerHr":5.16666666667,"MxWtTime":60,"rte_count":2,"AvgHeadway":35,"MinHeadway":15,"MaxHeadway":55,"MetHdWyLim":1,"route_list":"26, 71","GlobalID":"855490ec-adc8-45af-b5f5-2d47aa679adf"}},{"type":"Feature","id":186,"geometry":{"type":"Point","coordinates":[-81.7305900002775,41.4839300000463]},"properties":{"OBJECTID":186,"Id":0,"stop_id":"gtfs:03457","stop_code":" ","stop_name":"DETROIT AV & W 65TH ST","stop_desc":" ","zone_id":"gtfs:","stop_url":" ","loc_type":" ","parent_sta":" ","NumTrips":25,"TripsPerHr":4.16666666667,"MxWtTime":16,"rte_count":1,"AvgHeadway":15,"MinHeadway":15,"MaxHeadway":15,"MetHdWyLim":1,"route_list":"26","GlobalID":"52a7208e-9950-4115-9b73-0d9e51e33382"}},{"type":"Feature","id":187,"geometry":{"type":"Point","coordinates":[-81.7300359995714,41.4841520006054]},"properties":{"OBJECTID":187,"Id":0,"stop_id":"gtfs:03458","stop_code":" ","stop_name":"DETROIT AV & W 65TH ST","stop_desc":" ","zone_id":"gtfs:","stop_url":" ","loc_type":" ","parent_sta":" ","NumTrips":24,"TripsPerHr":4,"MxWtTime":15,"rte_count":1,"AvgHeadway":15,"MinHeadway":15,"MaxHeadway":15,"MetHdWyLim":1,"route_list":"26","GlobalID":"8ea5e05f-d0cf-4866-a738-00044d48fb83"}},{"type":"Feature","id":188,"geometry":{"type":"Point","coordinates":[-81.7329809997128,41.4832799996411]},"properties":{"OBJECTID":188,"Id":0,"stop_id":"gtfs:03459","stop_code":" ","stop_name":"DETROIT AV & W 70TH ST","stop_desc":" ","zone_id":"gtfs:","stop_url":" ","loc_type":" ","parent_sta":" ","NumTrips":25,"TripsPerHr":4.16666666667,"MxWtTime":16,"rte_count":1,"AvgHeadway":15,"MinHeadway":15,"MaxHeadway":15,"MetHdWyLim":1,"route_list":"26","GlobalID":"7e7bef89-2284-40e5-9261-edb72a6bcb0d"}},{"type":"Feature","id":189,"geometry":{"type":"Point","coordinates":[-81.7331839995762,41.4833319997457]},"properties":{"OBJECTID":189,"Id":0,"stop_id":"gtfs:03460","stop_code":" ","stop_name":"DETROIT AV & W 70TH ST","stop_desc":" ","zone_id":"gtfs:","stop_url":" ","loc_type":" ","parent_sta":" ","NumTrips":24,"TripsPerHr":4,"MxWtTime":15,"rte_count":1,"AvgHeadway":15,"MinHeadway":15,"MaxHeadway":15,"MetHdWyLim":1,"route_list":"26","GlobalID":"e78ed140-ce38-41b2-85b5-2adc06055f6a"}},{"type":"Feature","id":190,"geometry":{"type":"Point","coordinates":[-81.7375509999135,41.4820670004948]},"properties":{"OBJECTID":190,"Id":0,"stop_id":"gtfs:03463","stop_code":" ","stop_name":"DETROIT AV & W 77TH ST","stop_desc":" ","zone_id":"gtfs:","stop_url":" ","loc_type":" ","parent_sta":" ","NumTrips":24,"TripsPerHr":4,"MxWtTime":16,"rte_count":1,"AvgHeadway":15,"MinHeadway":15,"MaxHeadway":15,"MetHdWyLim":1,"route_list":"26","GlobalID":"292e776d-df30-4f0f-ad10-76082048e84b"}},{"type":"Feature","id":191,"geometry":{"type":"Point","coordinates":[-81.7402540000254,41.4814010004426]},"properties":{"OBJECTID":191,"Id":0,"stop_id":"gtfs:03464","stop_code":" ","stop_name":"DETROIT AV & W 80TH ST","stop_desc":" ","zone_id":"gtfs:","stop_url":" ","loc_type":" ","parent_sta":" ","NumTrips":24,"TripsPerHr":4,"MxWtTime":16,"rte_count":1,"AvgHeadway":15,"MinHeadway":15,"MaxHeadway":15,"MetHdWyLim":1,"route_list":"26","GlobalID":"bec0182f-a04a-40fb-b8fa-37abfbe33b38"}},{"type":"Feature","id":192,"geometry":{"type":"Point","coordinates":[-81.7398810000241,41.4816189999979]},"properties":{"OBJECTID":192,"Id":0,"stop_id":"gtfs:03465","stop_code":" ","stop_name":"DETROIT AV & W 80TH ST","stop_desc":" ","zone_id":"gtfs:","stop_url":" ","loc_type":" ","parent_sta":" ","NumTrips":24,"TripsPerHr":4,"MxWtTime":15,"rte_count":1,"AvgHeadway":15,"MinHeadway":15,"MaxHeadway":15,"MetHdWyLim":1,"route_list":"26","GlobalID":"c368134a-9284-4944-a1f1-2b6ab2d61c22"}},{"type":"Feature","id":193,"geometry":{"type":"Point","coordinates":[-81.7422739997761,41.4808769998638]},"properties":{"OBJECTID":193,"Id":0,"stop_id":"gtfs:03466","stop_code":" ","stop_name":"DETROIT AV & W 84TH ST","stop_desc":" ","zone_id":"gtfs:","stop_url":" ","loc_type":" ","parent_sta":" ","NumTrips":24,"TripsPerHr":4,"MxWtTime":16,"rte_count":1,"AvgHeadway":15,"MinHeadway":15,"MaxHeadway":15,"MetHdWyLim":1,"route_list":"26","GlobalID":"7c3b77db-90c8-4365-b1c3-862008299be1"}},{"type":"Feature","id":194,"geometry":{"type":"Point","coordinates":[-81.7430109999046,41.4807689994893]},"properties":{"OBJECTID":194,"Id":0,"stop_id":"gtfs:03467","stop_code":" ","stop_name":"DETROIT AV & W 85TH ST","stop_desc":" ","zone_id":"gtfs:","stop_url":" ","loc_type":" ","parent_sta":" ","NumTrips":24,"TripsPerHr":4,"MxWtTime":15,"rte_count":1,"AvgHeadway":15,"MinHeadway":15,"MaxHeadway":15,"MetHdWyLim":1,"route_list":"26","GlobalID":"a400db98-c6bb-4603-99a4-f1de75a8656a"}},{"type":"Feature","id":195,"geometry":{"type":"Point","coordinates":[-81.7460160003526,41.4802979999703]},"properties":{"OBJECTID":195,"Id":0,"stop_id":"gtfs:03469","stop_code":" ","stop_name":"DETROIT AV & W 91ST ST","stop_desc":" ","zone_id":"gtfs:","stop_url":" ","loc_type":" ","parent_sta":" ","NumTrips":24,"TripsPerHr":4,"MxWtTime":16,"rte_count":1,"AvgHeadway":15,"MinHeadway":15,"MaxHeadway":15,"MetHdWyLim":1,"route_list":"26","GlobalID":"27e1298d-8ce9-4d6d-ad26-ca4266bb8fc8"}},{"type":"Feature","id":196,"geometry":{"type":"Point","coordinates":[-81.7460460002567,41.4803769999998]},"properties":{"OBJECTID":196,"Id":0,"stop_id":"gtfs:03470","stop_code":" ","stop_name":"DETROIT AV & W 91ST ST","stop_desc":" ","zone_id":"gtfs:","stop_url":" ","loc_type":" ","parent_sta":" ","NumTrips":24,"TripsPerHr":4,"MxWtTime":15,"rte_count":1,"AvgHeadway":15,"MinHeadway":15,"MaxHeadway":15,"MetHdWyLim":1,"route_list":"26","GlobalID":"22aaea6d-ad72-4185-bdb1-0bc45cb6d322"}},{"type":"Feature","id":197,"geometry":{"type":"Point","coordinates":[-81.748756999921,41.4800729997057]},"properties":{"OBJECTID":197,"Id":0,"stop_id":"gtfs:03471","stop_code":" ","stop_name":"DETROIT AV & W 95TH ST","stop_desc":" ","zone_id":"gtfs:","stop_url":" ","loc_type":" ","parent_sta":" ","NumTrips":24,"TripsPerHr":4,"MxWtTime":16,"rte_count":1,"AvgHeadway":15,"MinHeadway":15,"MaxHeadway":15,"MetHdWyLim":1,"route_list":"26","GlobalID":"e7a37506-38ca-434d-9c2c-ff24a46b27e8"}},{"type":"Feature","id":198,"geometry":{"type":"Point","coordinates":[-81.8225480004464,41.4842759997279]},"properties":{"OBJECTID":198,"Id":0,"stop_id":"gtfs:03472","stop_code":" ","stop_name":"DETROIT AV & W CLIFTON BLVD","stop_desc":" ","zone_id":"gtfs:","stop_url":" ","loc_type":" ","parent_sta":" ","NumTrips":24,"TripsPerHr":4,"MxWtTime":16,"rte_count":1,"AvgHeadway":15,"MinHeadway":15,"MaxHeadway":15,"MetHdWyLim":1,"route_list":"26","GlobalID":"289f6b79-a826-43c9-89b8-d4f28a732213"}},{"type":"Feature","id":199,"geometry":{"type":"Point","coordinates":[-81.8123590003172,41.4852210001119]},"properties":{"OBJECTID":199,"Id":0,"stop_id":"gtfs:03474","stop_code":" ","stop_name":"DETROIT RD & WAGAR RD","stop_desc":" ","zone_id":"gtfs:","stop_url":" ","loc_type":" ","parent_sta":" ","NumTrips":24,"TripsPerHr":4,"MxWtTime":16,"rte_count":1,"AvgHeadway":15,"MinHeadway":15,"MaxHeadway":15,"MetHdWyLim":1,"route_list":"26","GlobalID":"b7e83df8-6e0a-4b8c-ae41-15185238b19b"}},{"type":"Feature","id":200,"geometry":{"type":"Point","coordinates":[-81.7991370002184,41.4850910007195]},"properties":{"OBJECTID":200,"Id":0,"stop_id":"gtfs:03476","stop_code":" ","stop_name":"DETROIT AV & WARREN RD","stop_desc":" ","zone_id":"gtfs:","stop_url":" ","loc_type":" ","parent_sta":" ","NumTrips":24,"TripsPerHr":4,"MxWtTime":16,"rte_count":1,"AvgHeadway":15,"MinHeadway":15,"MaxHeadway":15,"MetHdWyLim":1,"route_list":"26","GlobalID":"88fd6f62-008b-47ad-83bc-ba5c3fac870f"}},{"type":"Feature","id":201,"geometry":{"type":"Point","coordinates":[-81.7999799999763,41.4851939993034]},"properties":{"OBJECTID":201,"Id":0,"stop_id":"gtfs:03477","stop_code":" ","stop_name":"DETROIT AV & WARREN RD","stop_desc":" ","zone_id":"gtfs:","stop_url":" ","loc_type":" ","parent_sta":" ","NumTrips":24,"TripsPerHr":4,"MxWtTime":16,"rte_count":1,"AvgHeadway":15,"MinHeadway":15,"MaxHeadway":15,"MetHdWyLim":1,"route_list":"26","GlobalID":"7a624fc1-3a15-4e62-9989-2aea7de6a7f8"}},{"type":"Feature","id":202,"geometry":{"type":"Point","coordinates":[-81.820372999339,41.4844209997007]},"properties":{"OBJECTID":202,"Id":0,"stop_id":"gtfs:03479","stop_code":" ","stop_name":"DETROIT AV & WEBB RD","stop_desc":" ","zone_id":"gtfs:","stop_url":" ","loc_type":" ","parent_sta":" ","NumTrips":24,"TripsPerHr":4,"MxWtTime":16,"rte_count":1,"AvgHeadway":15,"MinHeadway":15,"MaxHeadway":15,"MetHdWyLim":1,"route_list":"26","GlobalID":"5e6f00ad-059a-4c35-a185-1dd8d7b9f1fe"}},{"type":"Feature","id":203,"geometry":{"type":"Point","coordinates":[-81.8200430002437,41.4847819992761]},